{
  "boxes": [
    {
      "original_name": "Desa Tengger Lor Box 1",
      "name": "Box 1 Desa Tengger",
      "box_identifier": "Desa Tengger Lor Box 1",
      "kecamatan": "KUNJANG",
      "desa": "tengger",
      "box_number": "1",
      "longitude": 112.17591,
      "latitude": -7.6624,
      "box_key": "tengger_box_1",
      "color": "hsl(0, 65%, 45%)",
      "color_hsl": "hsl(0, 65%, 45%)",
      "color_hex": "#bd2828"
    },
    {
      "original_name": "Desa Wonorejo Box 1",
      "name": "Box 1 Desa Wonorejo",
      "box_identifier": "Desa Wonorejo Box 1",
      "kecamatan": "KUNJANG",
      "desa": "wonorejo",
      "box_number": "1",
      "longitude": 112.18664,
      "latitude": -7.6692,
      "box_key": "wonorejo_box_1",
      "color": "hsl(138, 75%, 55%)",
      "color_hsl": "hsl(138, 75%, 55%)",
      "color_hex": "#36e268"
    },
    {
      "original_name": "Desa Kapi Box 1",
      "name": "Box 1 Desa Kapi",
      "box_identifier": "Desa Kapi Box 1",
      "kecamatan": "KUNJANG",
      "desa": "kapi",
      "box_number": "1",
      "longitude": 112.162716,
      "latitude": -7.6572613,
      "box_key": "kapi_box_1",
      "color": "hsl(275, 85%, 65%)",
      "color_hsl": "hsl(275, 85%, 65%)",
      "color_hex": "#b259f1"
    },
    {
      "original_name": "Desa Kunjang Box 1",
      "name": "Box 1 Desa Kunjang",
      "box_identifier": "Desa Kunjang Box 1",
      "kecamatan": "KUNJANG",
      "desa": "kunjang",
      "box_number": "1",
      "longitude": 112.1575915,
      "latitude": -7.6551586,
      "box_key": "kunjang_box_1",
      "color": "hsl(53, 95%, 45%)",
      "color_hsl": "hsl(53, 95%, 45%)",
      "color_hex": "#dfc405"
    },
    {
      "original_name": "Desa Pakis Box 1",
      "name": "Box 1 Desa Pakis",
      "box_identifier": "Desa Pakis Box 1",
      "kecamatan": "KUNJANG",
      "desa": "pakis",
      "box_number": "1",
      "longitude": 112.1709713,
      "latitude": -7.6408234,
      "box_key": "pakis_box_1",
      "color": "hsl(190, 65%, 55%)",
      "color_hsl": "hsl(190, 65%, 55%)",
      "color_hex": "#41bdd6"
    },
    {
      "original_name": "Desa Juwet Box 1",
      "name": "Box 1 Desa Juwet",
      "box_identifier": "Desa Juwet Box 1",
      "kecamatan": "KUNJANG",
      "desa": "juwet",
      "box_number": "1",
      "longitude": 112.1828056,
      "latitude": -7.6523889,
      "box_key": "juwet_box_1",
      "color": "hsl(328, 75%, 65%)",
      "color_hsl": "hsl(328, 75%, 65%)",
      "color_hex": "#e862ab"
    },
    {
      "original_name": "Desa Balongjeruk Box 1",
      "name": "Box 1 Desa Balongjeruk",
      "box_identifier": "Desa Balongjeruk Box 1",
      "kecamatan": "KUNJANG",
      "desa": "balongjeruk",
      "box_number": "1",
      "longitude": 112.1917222,
      "latitude": -7.6742222,
      "box_key": "balongjeruk_box_1",
      "color": "hsl(105, 85%, 45%)",
      "color_hsl": "hsl(105, 85%, 45%)",
      "color_hex": "#41d411"
    },
    {
      "original_name": "Desa Juwet Box 2",
      "name": "Box 2 Desa Juwet",
      "box_identifier": "Desa Juwet Box 2",
      "kecamatan": "KUNJANG",
      "desa": "juwet",
      "box_number": "2",
      "longitude": 112.1908056,
      "latitude": -7.6505833,
      "box_key": "juwet_box_2",
      "color": "hsl(243, 95%, 55%)",
      "color_hsl": "hsl(243, 95%, 55%)",
      "color_hex": "#281ff9"
    },
    {
      "original_name": "Box 2",
      "name": "Box 2 Desa Petok",
      "box_identifier": "Desa Petok Box 2",
      "kecamatan": "MOJO",
      "desa": "petok",
      "box_number": "2",
      "longitude": 111.98774,
      "latitude": -7.8573,
      "box_key": "petok_box_2",
      "color": "hsl(20, 65%, 65%)",
      "color_hsl": "hsl(20, 65%, 65%)",
      "color_hex": "#df926b"
    },
    {
      "original_name": "Box 1",
      "name": "Box 1 Desa Petok",
      "box_identifier": "Desa Petok Box 1",
      "kecamatan": "MOJO",
      "desa": "petok",
      "box_number": "1",
      "longitude": 111.98781,
      "latitude": -7.85698,
      "box_key": "petok_box_1",
      "color": "hsl(158, 75%, 45%)",
      "color_hsl": "hsl(158, 75%, 45%)",
      "color_hex": "#1cc888"
    },
    {
      "original_name": "Box 1",
      "name": "Box 1 Desa Mondo",
      "box_identifier": "Desa Mondo Box 1",
      "kecamatan": "MOJO",
      "desa": "mondo",
      "box_number": "1",
      "longitude": 111.97997,
      "latitude": -7.86735,
      "box_key": "mondo_box_1",
      "color": "hsl(295, 85%, 55%)",
      "color_hsl": "hsl(295, 85%, 55%)",
      "color_hex": "#dd2aed"
    },
    {
      "original_name": "Box 2",
      "name": "Box 2 Desa Mondo",
      "box_identifier": "Desa Mondo Box 2",
      "kecamatan": "MOJO",
      "desa": "mondo",
      "box_number": "2",
      "longitude": 111.98074,
      "latitude": -7.86637,
      "box_key": "mondo_box_2",
      "color": "hsl(73, 95%, 65%)",
      "color_hsl": "hsl(73, 95%, 65%)",
      "color_hex": "#d6fa50"
    },
    {
      "original_name": "Box 3",
      "name": "Box 3 Desa Mondo",
      "box_identifier": "Desa Mondo Box 3",
      "kecamatan": "MOJO",
      "desa": "mondo",
      "box_number": "3",
      "longitude": 111.97689,
      "latitude": -7.86523,
      "box_key": "mondo_box_3",
      "color": "hsl(210, 65%, 45%)",
      "color_hsl": "hsl(210, 65%, 45%)",
      "color_hex": "#2872bd"
    },
    {
      "original_name": "Box 1",
      "name": "desa Sukoanyar",
      "box_identifier": "desa Sukoanyar",
      "kecamatan": "MOJO",
      "desa": "sukoanyar",
      "box_number": null,
      "longitude": 111.96942,
      "latitude": -7.88631,
      "box_key": "desa sukoanyar",
      "color": "hsl(348, 75%, 55%)",
      "color_hsl": "hsl(348, 75%, 55%)",
      "color_hex": "#e23659"
    },
    {
      "original_name": "Box 2",
      "name": "Box 2 Desa Sukoanyar",
      "box_identifier": "Desa Sukoanyar Box 2",
      "kecamatan": "MOJO",
      "desa": "sukoanyar",
      "box_number": "2",
      "longitude": 111.97092,
      "latitude": -7.88205,
      "box_key": "sukoanyar_box_2",
      "color": "hsl(125, 85%, 65%)",
      "color_hsl": "hsl(125, 85%, 65%)",
      "color_hex": "#59f166"
    },
    {
      "original_name": "Box 3",
      "name": "Box 3 Desa Sukoanyar",
      "box_identifier": "Desa Sukoanyar Box 3",
      "kecamatan": "MOJO",
      "desa": "sukoanyar",
      "box_number": "3",
      "longitude": 111.97416,
      "latitude": -7.87521,
      "box_key": "sukoanyar_box_3",
      "color": "hsl(263, 95%, 45%)",
      "color_hsl": "hsl(263, 95%, 45%)",
      "color_hex": "#5705df"
    },
    {
      "original_name": "Box 4",
      "name": "Box 4 Desa Sukoanyar",
      "box_identifier": "Desa Sukoanyar Box 4",
      "kecamatan": "MOJO",
      "desa": "sukoanyar",
      "box_number": "4",
      "longitude": 111.97027,
      "latitude": -7.87342,
      "box_key": "sukoanyar_box_4",
      "color": "hsl(40, 65%, 55%)",
      "color_hsl": "hsl(40, 65%, 55%)",
      "color_hex": "#d6a541"
    },
    {
      "original_name": "Box 1",
      "name": "Box 1 Desa Tambibendo",
      "box_identifier": "Desa Tambibendo Box 1",
      "kecamatan": "MOJO",
      "desa": "tambibendo",
      "box_number": "1",
      "longitude": 111.95975,
      "latitude": -7.90594,
      "box_key": "tambibendo_box_1",
      "color": "hsl(178, 75%, 65%)",
      "color_hsl": "hsl(178, 75%, 65%)",
      "color_hex": "#62e8e3"
    },
    {
      "original_name": "Box 2",
      "name": "Box 2 Desa Tambibendo",
      "box_identifier": "Desa Tambibendo Box 2",
      "kecamatan": "MOJO",
      "desa": "tambibendo",
      "box_number": "2",
      "longitude": 111.96133,
      "latitude": -7.90213,
      "box_key": "tambibendo_box_2",
      "color": "hsl(315, 85%, 45%)",
      "color_hsl": "hsl(315, 85%, 45%)",
      "color_hex": "#d411a3"
    },
    {
      "original_name": "Box 1",
      "name": "Box 1 Desa Mojo",
      "box_identifier": "Desa Mojo Box 1",
      "kecamatan": "MOJO",
      "desa": "mojo",
      "box_number": "1",
      "longitude": 111.96398,
      "latitude": -7.89752,
      "box_key": "mojo_box_1",
      "color": "hsl(93, 95%, 55%)",
      "color_hsl": "hsl(93, 95%, 55%)",
      "color_hex": "#82f91f"
    },
    {
      "original_name": "Box 2",
      "name": "Box 2 Desa Mojo",
      "box_identifier": "Desa Mojo Box 2",
      "kecamatan": "MOJO",
      "desa": "mojo",
      "box_number": "2",
      "longitude": 111.9596781,
      "latitude": -7.892949,
      "box_key": "mojo_box_2",
      "color": "hsl(230, 65%, 65%)",
      "color_hsl": "hsl(230, 65%, 65%)",
      "color_hex": "#6b7edf"
    },
    {
      "original_name": "Box 3",
      "name": "Box 3 Desa Mojo",
      "box_identifier": "Desa Mojo Box 3",
      "kecamatan": "MOJO",
      "desa": "mojo",
      "box_number": "3",
      "longitude": 111.9653107,
      "latitude": -7.8948619,
      "box_key": "mojo_box_3",
      "color": "hsl(8, 75%, 45%)",
      "color_hsl": "hsl(8, 75%, 45%)",
      "color_hex": "#c8321c"
    },
    {
      "original_name": "Box 1",
      "name": "Box 1 Desa Mlati",
      "box_identifier": "Desa Mlati Box 1",
      "kecamatan": "MOJO",
      "desa": "mlati",
      "box_number": "1",
      "longitude": 111.9725,
      "latitude": -7.89569,
      "box_key": "mlati_box_1",
      "color": "hsl(145, 85%, 55%)",
      "color_hsl": "hsl(145, 85%, 55%)",
      "color_hex": "#2aed7c"
    },
    {
      "original_name": "Box 1",
      "name": "Box 1 Desa Surat",
      "box_identifier": "Desa Surat Box 1",
      "kecamatan": "MOJO",
      "desa": "surat",
      "box_number": "1",
      "longitude": 111.96241,
      "latitude": -7.88524,
      "box_key": "surat_box_1",
      "color": "hsl(283, 95%, 65%)",
      "color_hsl": "hsl(283, 95%, 65%)",
      "color_hex": "#c950fa"
    },
    {
      "original_name": "Box 2",
      "name": "Box 2 Desa Surat",
      "box_identifier": "Desa Surat Box 2",
      "kecamatan": "MOJO",
      "desa": "surat",
      "box_number": "2",
      "longitude": 111.94736,
      "latitude": -7.88329,
      "box_key": "surat_box_2",
      "color": "hsl(60, 65%, 45%)",
      "color_hsl": "hsl(60, 65%, 45%)",
      "color_hex": "#bcbd28"
    },
    {
      "original_name": "Box 3",
      "name": "Box 3 Desa Surat",
      "box_identifier": "Desa Surat Box 3",
      "kecamatan": "MOJO",
      "desa": "surat",
      "box_number": "3",
      "longitude": 111.94414,
      "latitude": -7.87732,
      "box_key": "surat_box_3",
      "color": "hsl(198, 75%, 55%)",
      "color_hsl": "hsl(198, 75%, 55%)",
      "color_hex": "#36afe2"
    },
    {
      "original_name": "Box 1",
      "name": "desa Ploso",
      "box_identifier": "desa Ploso",
      "kecamatan": "MOJO",
      "desa": "ploso",
      "box_number": null,
      "longitude": 111.95033,
      "latitude": -7.9148,
      "box_key": "desa ploso",
      "color": "hsl(335, 85%, 65%)",
      "color_hsl": "hsl(335, 85%, 65%)",
      "color_hex": "#f15998"
    },
    {
      "original_name": "Box 2",
      "name": "desa Ploso",
      "box_identifier": "desa Ploso",
      "kecamatan": "MOJO",
      "desa": "ploso",
      "box_number": null,
      "longitude": 111.95805,
      "latitude": -7.9237,
      "box_key": "desa ploso",
      "color": "hsl(113, 95%, 45%)",
      "color_hsl": "hsl(113, 95%, 45%)",
      "color_hex": "#20df05"
    },
    {
      "original_name": "Box 3",
      "name": "desa Ploso",
      "box_identifier": "desa Ploso",
      "kecamatan": "MOJO",
      "desa": "ploso",
      "box_number": null,
      "longitude": 111.95639,
      "latitude": -7.92725,
      "box_key": "desa ploso",
      "color": "hsl(250, 65%, 55%)",
      "color_hsl": "hsl(250, 65%, 55%)",
      "color_hex": "#5b41d6"
    },
    {
      "original_name": "Box 1",
      "name": "desa maesan",
      "box_identifier": "desa maesan",
      "kecamatan": "MOJO",
      "desa": "maesan",
      "box_number": null,
      "longitude": 111.95191,
      "latitude": -7.94219,
      "box_key": "desa maesan",
      "color": "hsl(28, 75%, 65%)",
      "color_hsl": "hsl(28, 75%, 65%)",
      "color_hex": "#e8a062"
    },
    {
      "original_name": "Box 2",
      "name": "desa Maesan",
      "box_identifier": "desa Maesan",
      "kecamatan": "MOJO",
      "desa": "maesan",
      "box_number": null,
      "longitude": 111.94942,
      "latitude": -7.94175,
      "box_key": "desa maesan",
      "color": "hsl(165, 85%, 45%)",
      "color_hsl": "hsl(165, 85%, 45%)",
      "color_hex": "#11d4a4"
    },
    {
      "original_name": "Box 1",
      "name": "desa KRANDING",
      "box_identifier": "desa KRANDING",
      "kecamatan": "MOJO",
      "desa": "kranding",
      "box_number": null,
      "longitude": 111.94666,
      "latitude": -7.94621,
      "box_key": "desa kranding",
      "color": "hsl(303, 95%, 55%)",
      "color_hsl": "hsl(303, 95%, 55%)",
      "color_hex": "#f91fef"
    },
    {
      "original_name": "Box 2",
      "name": "desa KRANDING",
      "box_identifier": "desa KRANDING",
      "kecamatan": "MOJO",
      "desa": "kranding",
      "box_number": null,
      "longitude": 111.94433,
      "latitude": -7.94925,
      "box_key": "desa kranding",
      "color": "hsl(80, 65%, 65%)",
      "color_hsl": "hsl(80, 65%, 65%)",
      "color_hex": "#b8df6b"
    },
    {
      "original_name": "Box 3",
      "name": "desa KRANDING",
      "box_identifier": "desa KRANDING",
      "kecamatan": "MOJO",
      "desa": "kranding",
      "box_number": null,
      "longitude": 111.94034,
      "latitude": -7.95331,
      "box_key": "desa kranding",
      "color": "hsl(218, 75%, 45%)",
      "color_hsl": "hsl(218, 75%, 45%)",
      "color_hex": "#1c5cc8"
    },
    {
      "original_name": "Box 1",
      "name": "desa Ngadi",
      "box_identifier": "desa Ngadi",
      "kecamatan": "MOJO",
      "desa": "ngadi",
      "box_number": null,
      "longitude": 111.93074,
      "latitude": -7.95801,
      "box_key": "desa ngadi",
      "color": "hsl(355, 85%, 55%)",
      "color_hsl": "hsl(355, 85%, 55%)",
      "color_hex": "#ed2a3a"
    },
    {
      "original_name": "Box 2",
      "name": "desa Ngadi",
      "box_identifier": "desa Ngadi",
      "kecamatan": "MOJO",
      "desa": "ngadi",
      "box_number": null,
      "longitude": 111.92729,
      "latitude": -7.96073,
      "box_key": "desa ngadi",
      "color": "hsl(133, 95%, 65%)",
      "color_hsl": "hsl(133, 95%, 65%)",
      "color_hex": "#50fa75"
    },
    {
      "original_name": "Box 3",
      "name": "desa Ngadi",
      "box_identifier": "desa Ngadi",
      "kecamatan": "MOJO",
      "desa": "ngadi",
      "box_number": null,
      "longitude": 111.9239,
      "latitude": -7.95712,
      "box_key": "desa ngadi",
      "color": "hsl(270, 65%, 45%)",
      "color_hsl": "hsl(270, 65%, 45%)",
      "color_hex": "#7328bd"
    },
    {
      "original_name": "Box 4",
      "name": "desa Ngadi",
      "box_identifier": "desa Ngadi",
      "kecamatan": "MOJO",
      "desa": "ngadi",
      "box_number": null,
      "longitude": 111.9169,
      "latitude": -7.9539,
      "box_key": "desa ngadi",
      "color": "hsl(48, 75%, 55%)",
      "color_hsl": "hsl(48, 75%, 55%)",
      "color_hex": "#e2bf36"
    },
    {
      "original_name": "Box 5",
      "name": "desa Ngadi",
      "box_identifier": "desa Ngadi",
      "kecamatan": "MOJO",
      "desa": "ngadi",
      "box_number": null,
      "longitude": 111.91695,
      "latitude": -7.95386,
      "box_key": "desa ngadi",
      "color": "hsl(185, 85%, 65%)",
      "color_hsl": "hsl(185, 85%, 65%)",
      "color_hex": "#59e4f1"
    },
    {
      "original_name": "Box 6",
      "name": "desa Ngadi",
      "box_identifier": "desa Ngadi",
      "kecamatan": "MOJO",
      "desa": "ngadi",
      "box_number": null,
      "longitude": 111.93096,
      "latitude": -7.95774,
      "box_key": "desa ngadi",
      "color": "hsl(323, 95%, 45%)",
      "color_hsl": "hsl(323, 95%, 45%)",
      "color_hex": "#df058c"
    },
    {
      "original_name": "Box 1",
      "name": "desa Ngetrep",
      "box_identifier": "desa Ngetrep",
      "kecamatan": "MOJO",
      "desa": "ngetrep",
      "box_number": null,
      "longitude": 111.90677,
      "latitude": -7.95558,
      "box_key": "desa ngetrep",
      "color": "hsl(100, 65%, 55%)",
      "color_hsl": "hsl(100, 65%, 55%)",
      "color_hex": "#72d641"
    },
    {
      "original_name": "Box 2",
      "name": "desa Ngetrep",
      "box_identifier": "desa Ngetrep",
      "kecamatan": "MOJO",
      "desa": "ngetrep",
      "box_number": null,
      "longitude": 111.90185,
      "latitude": -7.95509,
      "box_key": "desa ngetrep",
      "color": "hsl(238, 75%, 65%)",
      "color_hsl": "hsl(238, 75%, 65%)",
      "color_hex": "#6267e8"
    },
    {
      "original_name": "Box 3",
      "name": "desa Ngetrep",
      "box_identifier": "desa Ngetrep",
      "kecamatan": "MOJO",
      "desa": "ngetrep",
      "box_number": null,
      "longitude": 111.90696,
      "latitude": -7.94019,
      "box_key": "desa ngetrep",
      "color": "hsl(15, 85%, 45%)",
      "color_hsl": "hsl(15, 85%, 45%)",
      "color_hex": "#d44311"
    },
    {
      "original_name": "Box 4",
      "name": "desa Ngetrep",
      "box_identifier": "desa Ngetrep",
      "kecamatan": "MOJO",
      "desa": "ngetrep",
      "box_number": null,
      "longitude": 111.90298,
      "latitude": -7.93625,
      "box_key": "desa ngetrep",
      "color": "hsl(153, 95%, 55%)",
      "color_hsl": "hsl(153, 95%, 55%)",
      "color_hex": "#1ff996"
    },
    {
      "original_name": "Box 5",
      "name": "desa Ngetrep",
      "box_identifier": "desa Ngetrep",
      "kecamatan": "MOJO",
      "desa": "ngetrep",
      "box_number": null,
      "longitude": 111.87878,
      "latitude": -7.93004,
      "box_key": "desa ngetrep",
      "color": "hsl(290, 65%, 65%)",
      "color_hsl": "hsl(290, 65%, 65%)",
      "color_hex": "#cd6bdf"
    },
    {
      "original_name": "Box 1",
      "name": "desa Kedawung",
      "box_identifier": "desa Kedawung",
      "kecamatan": "MOJO",
      "desa": "kedawung",
      "box_number": null,
      "longitude": 111.94003,
      "latitude": -7.93126,
      "box_key": "desa kedawung",
      "color": "hsl(68, 75%, 45%)",
      "color_hsl": "hsl(68, 75%, 45%)",
      "color_hex": "#b2c81c"
    },
    {
      "original_name": "Box 2",
      "name": "desa Kedawung",
      "box_identifier": "desa Kedawung",
      "kecamatan": "MOJO",
      "desa": "kedawung",
      "box_number": null,
      "longitude": 111.94002,
      "latitude": -7.93126,
      "box_key": "desa kedawung",
      "color": "hsl(205, 85%, 55%)",
      "color_hsl": "hsl(205, 85%, 55%)",
      "color_hex": "#2a9bed"
    },
    {
      "original_name": "Box 3",
      "name": "desa Kedawung",
      "box_identifier": "desa Kedawung",
      "kecamatan": "MOJO",
      "desa": "kedawung",
      "box_number": null,
      "longitude": 111.94498,
      "latitude": -7.92079,
      "box_key": "desa kedawung",
      "color": "hsl(343, 95%, 65%)",
      "color_hsl": "hsl(343, 95%, 65%)",
      "color_hex": "#fa5081"
    },
    {
      "original_name": "Box 4",
      "name": "desa Kedawung",
      "box_identifier": "desa Kedawung",
      "kecamatan": "MOJO",
      "desa": "kedawung",
      "box_number": null,
      "longitude": 111.93525,
      "latitude": -7.93531,
      "box_key": "desa kedawung",
      "color": "hsl(120, 65%, 45%)",
      "color_hsl": "hsl(120, 65%, 45%)",
      "color_hex": "#28bd29"
    },
    {
      "original_name": "Box 5",
      "name": "desa Kedawung",
      "box_identifier": "desa Kedawung",
      "kecamatan": "MOJO",
      "desa": "kedawung",
      "box_number": null,
      "longitude": 111.92918,
      "latitude": -7.93174,
      "box_key": "desa kedawung",
      "color": "hsl(258, 75%, 55%)",
      "color_hsl": "hsl(258, 75%, 55%)",
      "color_hex": "#6936e2"
    },
    {
      "original_name": "Box 6",
      "name": "desa Kedawung",
      "box_identifier": "desa Kedawung",
      "kecamatan": "MOJO",
      "desa": "kedawung",
      "box_number": null,
      "longitude": 111.91619,
      "latitude": -7.91462,
      "box_key": "desa kedawung",
      "color": "hsl(35, 85%, 65%)",
      "color_hsl": "hsl(35, 85%, 65%)",
      "color_hex": "#f1b359"
    },
    {
      "original_name": "Box 1",
      "name": "desa Kraton",
      "box_identifier": "desa Kraton",
      "kecamatan": "MOJO",
      "desa": "kraton",
      "box_number": null,
      "longitude": 111.94416,
      "latitude": -7.91323,
      "box_key": "desa kraton",
      "color": "hsl(173, 95%, 45%)",
      "color_hsl": "hsl(173, 95%, 45%)",
      "color_hex": "#05dfc5"
    },
    {
      "original_name": "Box 2",
      "name": "desa Kraton",
      "box_identifier": "desa Kraton",
      "kecamatan": "MOJO",
      "desa": "kraton",
      "box_number": null,
      "longitude": 111.94417,
      "latitude": -7.91321,
      "box_key": "desa kraton",
      "color": "hsl(310, 65%, 55%)",
      "color_hsl": "hsl(310, 65%, 55%)",
      "color_hex": "#d641bc"
    },
    {
      "original_name": "Box 3",
      "name": "desa Kraton",
      "box_identifier": "desa Kraton",
      "kecamatan": "MOJO",
      "desa": "kraton",
      "box_number": null,
      "longitude": 111.93615,
      "latitude": -7.90046,
      "box_key": "desa kraton",
      "color": "hsl(88, 75%, 65%)",
      "color_hsl": "hsl(88, 75%, 65%)",
      "color_hex": "#aae862"
    },
    {
      "original_name": "Box 1",
      "name": "desa Petungroto",
      "box_identifier": "desa Petungroto",
      "kecamatan": "MOJO",
      "desa": "petungroto",
      "box_number": null,
      "longitude": 111.87131,
      "latitude": -7.91773,
      "box_key": "desa petungroto",
      "color": "hsl(225, 85%, 45%)",
      "color_hsl": "hsl(225, 85%, 45%)",
      "color_hex": "#1140d4"
    },
    {
      "original_name": "Box 2",
      "name": "desa Petungroto",
      "box_identifier": "desa Petungroto",
      "kecamatan": "MOJO",
      "desa": "petungroto",
      "box_number": null,
      "longitude": 111.87099,
      "latitude": -7.90672,
      "box_key": "desa petungroto",
      "color": "hsl(3, 95%, 55%)",
      "color_hsl": "hsl(3, 95%, 55%)",
      "color_hex": "#f9291f"
    },
    {
      "original_name": "Box 3",
      "name": "desa Petungroto",
      "box_identifier": "desa Petungroto",
      "kecamatan": "MOJO",
      "desa": "petungroto",
      "box_number": null,
      "longitude": 111.88476,
      "latitude": -7.91539,
      "box_key": "desa petungroto",
      "color": "hsl(140, 65%, 65%)",
      "color_hsl": "hsl(140, 65%, 65%)",
      "color_hex": "#6bdf93"
    },
    {
      "original_name": "Box 1",
      "name": "desa Ponggok",
      "box_identifier": "desa Ponggok",
      "kecamatan": "MOJO",
      "desa": "ponggok",
      "box_number": null,
      "longitude": 111.90749,
      "latitude": -7.92871,
      "box_key": "desa ponggok",
      "color": "hsl(278, 75%, 45%)",
      "color_hsl": "hsl(278, 75%, 45%)",
      "color_hex": "#891cc8"
    },
    {
      "original_name": "Box 2",
      "name": "desa Ponggok",
      "box_identifier": "desa Ponggok",
      "kecamatan": "MOJO",
      "desa": "ponggok",
      "box_number": null,
      "longitude": 111.92092,
      "latitude": -7.93896,
      "box_key": "desa ponggok",
      "color": "hsl(55, 85%, 55%)",
      "color_hsl": "hsl(55, 85%, 55%)",
      "color_hex": "#eddf2a"
    },
    {
      "original_name": "Box 1",
      "name": "desa Pamongan",
      "box_identifier": "desa Pamongan",
      "kecamatan": "MOJO",
      "desa": "pamongan",
      "box_number": null,
      "longitude": 111.89707,
      "latitude": -7.90247,
      "box_key": "desa pamongan",
      "color": "hsl(193, 95%, 65%)",
      "color_hsl": "hsl(193, 95%, 65%)",
      "color_hex": "#50d5fa"
    },
    {
      "original_name": "Box 2",
      "name": "desa Pamongan",
      "box_identifier": "desa Pamongan",
      "kecamatan": "MOJO",
      "desa": "pamongan",
      "box_number": null,
      "longitude": 111.8856,
      "latitude": -7.89706,
      "box_key": "desa pamongan",
      "color": "hsl(330, 65%, 45%)",
      "color_hsl": "hsl(330, 65%, 45%)",
      "color_hex": "#bd2871"
    },
    {
      "original_name": "Box 3",
      "name": "desa Pamongan",
      "box_identifier": "desa Pamongan",
      "kecamatan": "MOJO",
      "desa": "pamongan",
      "box_number": null,
      "longitude": 111.8856,
      "latitude": -7.89706,
      "box_key": "desa pamongan",
      "color": "hsl(108, 75%, 55%)",
      "color_hsl": "hsl(108, 75%, 55%)",
      "color_hex": "#58e236"
    },
    {
      "original_name": "Box 1",
      "name": "desa Blimbing",
      "box_identifier": "desa Blimbing",
      "kecamatan": "MOJO",
      "desa": "blimbing",
      "box_number": null,
      "longitude": 111.93654,
      "latitude": -7.90088,
      "box_key": "desa blimbing",
      "color": "hsl(245, 85%, 65%)",
      "color_hsl": "hsl(245, 85%, 65%)",
      "color_hex": "#6759f1"
    },
    {
      "original_name": "Box 2",
      "name": "desa Blimbing",
      "box_identifier": "desa Blimbing",
      "kecamatan": "MOJO",
      "desa": "blimbing",
      "box_number": null,
      "longitude": 111.92401,
      "latitude": -7.89993,
      "box_key": "desa blimbing",
      "color": "hsl(23, 95%, 45%)",
      "color_hsl": "hsl(23, 95%, 45%)",
      "color_hex": "#df5905"
    },
    {
      "original_name": "Box 3",
      "name": "desa Blimbing",
      "box_identifier": "desa Blimbing",
      "kecamatan": "MOJO",
      "desa": "blimbing",
      "box_number": null,
      "longitude": 111.89786,
      "latitude": -7.88935,
      "box_key": "desa blimbing",
      "color": "hsl(161, 65%, 55%)",
      "color_hsl": "hsl(161, 65%, 55%)",
      "color_hex": "#41d6a6"
    },
    {
      "original_name": "Box 4",
      "name": "desa Blimbing",
      "box_identifier": "desa Blimbing",
      "kecamatan": "MOJO",
      "desa": "blimbing",
      "box_number": null,
      "longitude": 111.88695,
      "latitude": -7.88337,
      "box_key": "desa blimbing",
      "color": "hsl(298, 75%, 65%)",
      "color_hsl": "hsl(298, 75%, 65%)",
      "color_hex": "#e462e8"
    },
    {
      "original_name": "Box 5",
      "name": "desa Blimbing",
      "box_identifier": "desa Blimbing",
      "kecamatan": "MOJO",
      "desa": "blimbing",
      "box_number": null,
      "longitude": 111.91377,
      "latitude": -7.89329,
      "box_key": "desa blimbing",
      "color": "hsl(76, 85%, 45%)",
      "color_hsl": "hsl(76, 85%, 45%)",
      "color_hex": "#a1d411"
    },
    {
      "original_name": "Box 1",
      "name": "Jugo",
      "box_identifier": "Jugo",
      "kecamatan": "MOJO",
      "desa": "Unknown",
      "box_number": null,
      "longitude": 111.86922,
      "latitude": -7.85297,
      "box_key": "jugo",
      "color": "hsl(213, 95%, 55%)",
      "color_hsl": "hsl(213, 95%, 55%)",
      "color_hex": "#1f81f9"
    },
    {
      "original_name": "Box 2",
      "name": "Jugo",
      "box_identifier": "Jugo",
      "kecamatan": "MOJO",
      "desa": "Unknown",
      "box_number": null,
      "longitude": 111.85916,
      "latitude": -7.86449,
      "box_key": "jugo",
      "color": "hsl(351, 65%, 65%)",
      "color_hsl": "hsl(351, 65%, 65%)",
      "color_hex": "#df6b7e"
    },
    {
      "original_name": "Box 3",
      "name": "Jugo",
      "box_identifier": "Jugo",
      "kecamatan": "MOJO",
      "desa": "Unknown",
      "box_number": null,
      "longitude": 111.86418,
      "latitude": -7.863,
      "box_key": "jugo",
      "color": "hsl(128, 75%, 45%)",
      "color_hsl": "hsl(128, 75%, 45%)",
      "color_hex": "#1cc833"
    },
    {
      "original_name": "Box 4",
      "name": "Jugo",
      "box_identifier": "Jugo",
      "kecamatan": "MOJO",
      "desa": "Unknown",
      "box_number": null,
      "longitude": 111.85375,
      "latitude": -7.86311,
      "box_key": "jugo",
      "color": "hsl(266, 85%, 55%)",
      "color_hsl": "hsl(266, 85%, 55%)",
      "color_hex": "#7d2aed"
    },
    {
      "original_name": "Box 5",
      "name": "Jugo",
      "box_identifier": "Jugo",
      "kecamatan": "MOJO",
      "desa": "Unknown",
      "box_number": null,
      "longitude": 111.87628,
      "latitude": -7.86868,
      "box_key": "jugo",
      "color": "hsl(43, 95%, 65%)",
      "color_hsl": "hsl(43, 95%, 65%)",
      "color_hex": "#faca50"
    },
    {
      "original_name": "Box 6",
      "name": "Jugo",
      "box_identifier": "Jugo",
      "kecamatan": "MOJO",
      "desa": "Unknown",
      "box_number": null,
      "longitude": 111.87626,
      "latitude": -7.86867,
      "box_key": "jugo",
      "color": "hsl(181, 65%, 45%)",
      "color_hsl": "hsl(181, 65%, 45%)",
      "color_hex": "#28bbbd"
    },
    {
      "original_name": "Box 7",
      "name": "Jugo",
      "box_identifier": "Jugo",
      "kecamatan": "MOJO",
      "desa": "Unknown",
      "box_number": null,
      "longitude": 111.91615,
      "latitude": -7.87722,
      "box_key": "jugo",
      "color": "hsl(318, 75%, 55%)",
      "color_hsl": "hsl(318, 75%, 55%)",
      "color_hex": "#e236ae"
    },
    {
      "original_name": "Box 8",
      "name": "Jugo",
      "box_identifier": "Jugo",
      "kecamatan": "MOJO",
      "desa": "Unknown",
      "box_number": null,
      "longitude": 111.93305,
      "latitude": -7.88278,
      "box_key": "jugo",
      "color": "hsl(96, 85%, 65%)",
      "color_hsl": "hsl(96, 85%, 65%)",
      "color_hex": "#97f159"
    },
    {
      "original_name": "Box 1",
      "name": "Keniten",
      "box_identifier": "Keniten",
      "kecamatan": "MOJO",
      "desa": "Unknown",
      "box_number": null,
      "longitude": 111.96061,
      "latitude": -7.86696,
      "box_key": "keniten",
      "color": "hsl(233, 95%, 45%)",
      "color_hsl": "hsl(233, 95%, 45%)",
      "color_hex": "#051edf"
    },
    {
      "original_name": "Box 2",
      "name": "Keniten",
      "box_identifier": "Keniten",
      "kecamatan": "MOJO",
      "desa": "Unknown",
      "box_number": null,
      "longitude": 111.96062,
      "latitude": -7.86696,
      "box_key": "keniten",
      "color": "hsl(11, 65%, 55%)",
      "color_hsl": "hsl(11, 65%, 55%)",
      "color_hex": "#d65c41"
    },
    {
      "original_name": "Box 3",
      "name": "Keniten",
      "box_identifier": "Keniten",
      "kecamatan": "MOJO",
      "desa": "Unknown",
      "box_number": null,
      "longitude": 111.9147,
      "latitude": -7.8654,
      "box_key": "keniten",
      "color": "hsl(148, 75%, 65%)",
      "color_hsl": "hsl(148, 75%, 65%)",
      "color_hex": "#62e8a1"
    },
    {
      "original_name": "Box 5",
      "name": "Box 5 Desa Sukoayar",
      "box_identifier": "Desa Sukoayar Box 5",
      "kecamatan": "MOJO",
      "desa": "sukoayar",
      "box_number": "5",
      "longitude": 111.9694184,
      "latitude": -7.8779048,
      "box_key": "sukoayar_box_5",
      "color": "hsl(286, 85%, 45%)",
      "color_hsl": "hsl(286, 85%, 45%)",
      "color_hex": "#a511d4"
    },
    {
      "original_name": "Box 3",
      "name": "Box 3 Desa Petok",
      "box_identifier": "Desa Petok Box 3",
      "kecamatan": "MOJO",
      "desa": "petok",
      "box_number": "3",
      "longitude": 111.9757543,
      "latitude": -7.85785,
      "box_key": "petok_box_3",
      "color": "hsl(63, 95%, 55%)",
      "color_hsl": "hsl(63, 95%, 55%)",
      "color_hex": "#edf91f"
    },
    {
      "original_name": "Desa Pagu Box 1",
      "name": "Box 1 Desa Pagu",
      "box_identifier": "Desa Pagu Box 1",
      "kecamatan": "PAGU",
      "desa": "pagu",
      "box_number": "1",
      "longitude": 112.09135,
      "latitude": -7.76151,
      "box_key": "pagu_box_1",
      "color": "hsl(201, 65%, 65%)",
      "color_hsl": "hsl(201, 65%, 65%)",
      "color_hex": "#6bb7df"
    },
    {
      "original_name": "desa sitimerto",
      "name": "desa sitimerto",
      "box_identifier": "desa sitimerto",
      "kecamatan": "PAGU",
      "desa": "sitimerto",
      "box_number": null,
      "longitude": 112.08649,
      "latitude": -7.76847,
      "box_key": "desa sitimerto",
      "color": "hsl(338, 75%, 45%)",
      "color_hsl": "hsl(338, 75%, 45%)",
      "color_hex": "#c81c5b"
    },
    {
      "original_name": "Desa Jagung Box 1",
      "name": "Box 1 Desa Jagung",
      "box_identifier": "Desa Jagung Box 1",
      "kecamatan": "PAGU",
      "desa": "jagung",
      "box_number": "1",
      "longitude": 112.08186,
      "latitude": -7.75611,
      "box_key": "jagung_box_1",
      "color": "hsl(116, 85%, 55%)",
      "color_hsl": "hsl(116, 85%, 55%)",
      "color_hex": "#38ed2a"
    },
    {
      "original_name": "Desa Jagung Box 2",
      "name": "Box 2 Desa Jagung",
      "box_identifier": "Desa Jagung Box 2",
      "kecamatan": "PAGU",
      "desa": "jagung",
      "box_number": "2",
      "longitude": 112.0764015,
      "latitude": -7.75592,
      "box_key": "jagung_box_2",
      "color": "hsl(253, 95%, 65%)",
      "color_hsl": "hsl(253, 95%, 65%)",
      "color_hex": "#7650fa"
    },
    {
      "original_name": "Desa Bendo Box 1",
      "name": "Box 1 Desa Bendo",
      "box_identifier": "Desa Bendo Box 1",
      "kecamatan": "PAGU",
      "desa": "bendo",
      "box_number": "1",
      "longitude": 112.07155,
      "latitude": -7.76296,
      "box_key": "bendo_box_1",
      "color": "hsl(31, 65%, 45%)",
      "color_hsl": "hsl(31, 65%, 45%)",
      "color_hex": "#bd7428"
    },
    {
      "original_name": "Desa Semen Box 1",
      "name": "Box 1 Desa Semen",
      "box_identifier": "Desa Semen Box 1",
      "kecamatan": "PAGU",
      "desa": "semen",
      "box_number": "1",
      "longitude": 112.06412,
      "latitude": -7.76301,
      "box_key": "semen_box_1",
      "color": "hsl(168, 75%, 55%)",
      "color_hsl": "hsl(168, 75%, 55%)",
      "color_hex": "#36e2c0"
    },
    {
      "original_name": "Desa Semen Box 2",
      "name": "Box 2 Desa Semen",
      "box_identifier": "Desa Semen Box 2",
      "kecamatan": "PAGU",
      "desa": "semen",
      "box_number": "2",
      "longitude": 112.06154,
      "latitude": -7.76923,
      "box_key": "semen_box_2",
      "color": "hsl(306, 85%, 65%)",
      "color_hsl": "hsl(306, 85%, 65%)",
      "color_hex": "#f159e3"
    },
    {
      "original_name": "Desa Bulupasar Box 1",
      "name": "Box 1 Desa Bulupasar",
      "box_identifier": "Desa Bulupasar Box 1",
      "kecamatan": "PAGU",
      "desa": "bulupasar",
      "box_number": "1",
      "longitude": 112.06447,
      "latitude": -7.79338,
      "box_key": "bulupasar_box_1",
      "color": "hsl(83, 95%, 45%)",
      "color_hsl": "hsl(83, 95%, 45%)",
      "color_hex": "#8bdf05"
    },
    {
      "original_name": "Desa Bulupasar Box 2",
      "name": "Box 2 Desa Bulupasar",
      "box_identifier": "Desa Bulupasar Box 2",
      "kecamatan": "PAGU",
      "desa": "bulupasar",
      "box_number": "2",
      "longitude": 112.07433,
      "latitude": -7.79631,
      "box_key": "bulupasar_box_2",
      "color": "hsl(221, 65%, 55%)",
      "color_hsl": "hsl(221, 65%, 55%)",
      "color_hex": "#4171d6"
    },
    {
      "original_name": "Desa Bulupasar Box 3",
      "name": "Box 3 Desa Bulupasar",
      "box_identifier": "Desa Bulupasar Box 3",
      "kecamatan": "PAGU",
      "desa": "bulupasar",
      "box_number": "3",
      "longitude": 112.07328,
      "latitude": -7.79535,
      "box_key": "bulupasar_box_3",
      "color": "hsl(358, 75%, 65%)",
      "color_hsl": "hsl(358, 75%, 65%)",
      "color_hex": "#e86266"
    },
    {
      "original_name": "Desa Menang Box 1",
      "name": "Box 1 Desa Menang",
      "box_identifier": "Desa Menang Box 1",
      "kecamatan": "PAGU",
      "desa": "menang",
      "box_number": "1",
      "longitude": 112.0778,
      "latitude": -7.7804,
      "box_key": "menang_box_1",
      "color": "hsl(136, 85%, 45%)",
      "color_hsl": "hsl(136, 85%, 45%)",
      "color_hex": "#11d444"
    },
    {
      "original_name": "Desa Menang Box 2",
      "name": "Box 2 Desa Menang",
      "box_identifier": "Desa Menang Box 2",
      "kecamatan": "PAGU",
      "desa": "menang",
      "box_number": "2",
      "longitude": 112.08065,
      "latitude": -7.78178,
      "box_key": "menang_box_2",
      "color": "hsl(273, 95%, 55%)",
      "color_hsl": "hsl(273, 95%, 55%)",
      "color_hex": "#971ff9"
    },
    {
      "original_name": "Desa Menang Box 3",
      "name": "Box 3 Desa Menang",
      "box_identifier": "Desa Menang Box 3",
      "kecamatan": "PAGU",
      "desa": "menang",
      "box_number": "3",
      "longitude": 112.08524,
      "latitude": -7.77971,
      "box_key": "menang_box_3",
      "color": "hsl(51, 65%, 65%)",
      "color_hsl": "hsl(51, 65%, 65%)",
      "color_hex": "#dfcd6b"
    },
    {
      "original_name": "Desa Tengger Kidul Box 1",
      "name": "Box 1 Desa Tengger",
      "box_identifier": "Desa Tengger Kidul Box 1",
      "kecamatan": "PAGU",
      "desa": "tengger",
      "box_number": "1",
      "longitude": 112.09281,
      "latitude": -7.78243,
      "box_key": "tengger_box_1",
      "color": "hsl(188, 75%, 45%)",
      "color_hsl": "hsl(188, 75%, 45%)",
      "color_hex": "#1cb1c8"
    },
    {
      "original_name": "Desa Semanding Box 1",
      "name": "Box 1 Desa Semanding",
      "box_identifier": "Desa Semanding Box 1",
      "kecamatan": "PAGU",
      "desa": "semanding",
      "box_number": "1",
      "longitude": 112.09259,
      "latitude": -7.77747,
      "box_key": "semanding_box_1",
      "color": "hsl(326, 85%, 55%)",
      "color_hsl": "hsl(326, 85%, 55%)",
      "color_hex": "#ed2a9a"
    },
    {
      "original_name": "Desa Wates Box 1",
      "name": "Box 1 Desa Wates",
      "box_identifier": "Desa Wates Box 1",
      "kecamatan": "PAGU",
      "desa": "wates",
      "box_number": "1",
      "longitude": 112.0714,
      "latitude": -7.77702,
      "box_key": "wates_box_1",
      "color": "hsl(103, 95%, 65%)",
      "color_hsl": "hsl(103, 95%, 65%)",
      "color_hex": "#80fa50"
    },
    {
      "original_name": "Desa Wates Box 2",
      "name": "Box 2 Desa Wates",
      "box_identifier": "Desa Wates Box 2",
      "kecamatan": "PAGU",
      "desa": "wates",
      "box_number": "2",
      "longitude": 112.07031,
      "latitude": -7.77857,
      "box_key": "wates_box_2",
      "color": "hsl(241, 65%, 45%)",
      "color_hsl": "hsl(241, 65%, 45%)",
      "color_hex": "#2a28bd"
    },
    {
      "original_name": "Desa Tanjung Box 1",
      "name": "Box 1 Desa Tanjung",
      "box_identifier": "Desa Tanjung Box 1",
      "kecamatan": "PAGU",
      "desa": "tanjung",
      "box_number": "1",
      "longitude": 112.06701,
      "latitude": -7.77723,
      "box_key": "tanjung_box_1",
      "color": "hsl(18, 75%, 55%)",
      "color_hsl": "hsl(18, 75%, 55%)",
      "color_hex": "#e26a36"
    },
    {
      "original_name": "Desa Tanjung Box 2",
      "name": "Box 2 Desa Tanjung",
      "box_identifier": "Desa Tanjung Box 2",
      "kecamatan": "PAGU",
      "desa": "tanjung",
      "box_number": "2",
      "longitude": 112.06536,
      "latitude": -7.78284,
      "box_key": "tanjung_box_2",
      "color": "hsl(156, 85%, 65%)",
      "color_hsl": "hsl(156, 85%, 65%)",
      "color_hex": "#59f1b4"
    },
    {
      "original_name": "Desa Tanjung Box 3",
      "name": "Box 3 Desa Tanjung",
      "box_identifier": "Desa Tanjung Box 3",
      "kecamatan": "PAGU",
      "desa": "tanjung",
      "box_number": "3",
      "longitude": 112.06713,
      "latitude": -7.78612,
      "box_key": "tanjung_box_3",
      "color": "hsl(293, 95%, 45%)",
      "color_hsl": "hsl(293, 95%, 45%)",
      "color_hex": "#c705df"
    },
    {
      "original_name": "Desa Kambingan Box 1",
      "name": "Box 1 Desa Kambingan",
      "box_identifier": "Desa Kambingan Box 1",
      "kecamatan": "PAGU",
      "desa": "kambingan",
      "box_number": "1",
      "longitude": 112.0838611,
      "latitude": -7.7934167,
      "box_key": "kambingan_box_1",
      "color": "hsl(71, 65%, 55%)",
      "color_hsl": "hsl(71, 65%, 55%)",
      "color_hex": "#bbd641"
    },
    {
      "original_name": "Desa Kambingan Box 2",
      "name": "Box 2 Desa Kambingan",
      "box_identifier": "Desa Kambingan Box 2",
      "kecamatan": "PAGU",
      "desa": "kambingan",
      "box_number": "2",
      "longitude": 112.08925,
      "latitude": -7.7900278,
      "box_key": "kambingan_box_2",
      "color": "hsl(208, 75%, 65%)",
      "color_hsl": "hsl(208, 75%, 65%)",
      "color_hex": "#62a9e8"
    },
    {
      "original_name": "Desa Tengger Kidul Box 2",
      "name": "Box 2 Desa Tengger",
      "box_identifier": "Desa Tengger Kidul Box 2",
      "kecamatan": "PAGU",
      "desa": "tengger",
      "box_number": "2",
      "longitude": 112.0931944,
      "latitude": -7.7826111,
      "box_key": "tengger_box_2",
      "color": "hsl(346, 85%, 45%)",
      "color_hsl": "hsl(346, 85%, 45%)",
      "color_hex": "#d4113f"
    },
    {
      "original_name": "Desa Pagu Box 2",
      "name": "Box 2 Desa Pagu",
      "box_identifier": "Desa Pagu Box 2",
      "kecamatan": "PAGU",
      "desa": "pagu",
      "box_number": "2",
      "longitude": 112.0879444,
      "latitude": -7.7650278,
      "box_key": "pagu_box_2",
      "color": "hsl(123, 95%, 55%)",
      "color_hsl": "hsl(123, 95%, 55%)",
      "color_hex": "#1ff92b"
    },
    {
      "original_name": "Desa Pagu Box 3",
      "name": "Box 3 Desa Pagu",
      "box_identifier": "Desa Pagu Box 3",
      "kecamatan": "PAGU",
      "desa": "pagu",
      "box_number": "3",
      "longitude": 112.0820278,
      "latitude": -7.7681667,
      "box_key": "pagu_box_3",
      "color": "hsl(261, 65%, 65%)",
      "color_hsl": "hsl(261, 65%, 65%)",
      "color_hex": "#946bdf"
    },
    {
      "original_name": "Desa Wonosari Box 1",
      "name": "Box 1 Desa Wonosari",
      "box_identifier": "Desa Wonosari Box 1",
      "kecamatan": "PAGU",
      "desa": "wonosari",
      "box_number": "1",
      "longitude": 112.08675,
      "latitude": -7.8032778,
      "box_key": "wonosari_box_1",
      "color": "hsl(38, 75%, 45%)",
      "color_hsl": "hsl(38, 75%, 45%)",
      "color_hex": "#c88a1c"
    }
  ],
  "lampu": [
    {
      "name": "ASET DESA LEGAL",
      "nama_aset": "",
      "kecamatan": "KUNJANG",
      "desa": "balongjeruk  kunjang",
      "longitude": 112.18627,
      "latitude": -7.68825,
      "lampu_type": "LED",
      "jenis_jalan": "NON K1",
      "box_name": "TIDAK TERSAMBUNG",
      "box_key": null,
      "connected": false,
      "box_id": null,
      "color": null
    },
    {
      "name": "ASET DESA LEGAL",
      "nama_aset": "",
      "kecamatan": "KUNJANG",
      "desa": "balongjeruk  kunjang",
      "longitude": 112.18601,
      "latitude": -7.6881,
      "lampu_type": "LED",
      "jenis_jalan": "NON K1",
      "box_name": "TIDAK TERSAMBUNG",
      "box_key": null,
      "connected": false,
      "box_id": null,
      "color": null
    },
    {
      "name": "ASET DESA LEGAL",
      "nama_aset": "",
      "kecamatan": "KUNJANG",
      "desa": "balongjeruk  kunjang",
      "longitude": 112.18569,
      "latitude": -7.68793,
      "lampu_type": "LED",
      "jenis_jalan": "NON K1",
      "box_name": "TIDAK TERSAMBUNG",
      "box_key": null,
      "connected": false,
      "box_id": null,
      "color": null
    },
    {
      "name": "ASET DESA LEGAL",
      "nama_aset": "",
      "kecamatan": "KUNJANG",
      "desa": "balongjeruk  kunjang",
      "longitude": 112.18533,
      "latitude": -7.68774,
      "lampu_type": "LED",
      "jenis_jalan": "NON K1",
      "box_name": "TIDAK TERSAMBUNG",
      "box_key": null,
      "connected": false,
      "box_id": null,
      "color": null
    },
    {
      "name": "ASET DESA LEGAL",
      "nama_aset": "",
      "kecamatan": "KUNJANG",
      "desa": "balongjeruk  kunjang",
      "longitude": 112.185,
      "latitude": -7.68756,
      "lampu_type": "LED",
      "jenis_jalan": "NON K1",
      "box_name": "TIDAK TERSAMBUNG",
      "box_key": null,
      "connected": false,
      "box_id": null,
      "color": null
    },
    {
      "name": "ASET DESA LEGAL",
      "nama_aset": "",
      "kecamatan": "KUNJANG",
      "desa": "balongjeruk  kunjang",
      "longitude": 112.18462,
      "latitude": -7.68735,
      "lampu_type": "LED",
      "jenis_jalan": "NON K1",
      "box_name": "TIDAK TERSAMBUNG",
      "box_key": null,
      "connected": false,
      "box_id": null,
      "color": null
    },
    {
      "name": "ASET DESA LEGAL",
      "nama_aset": "",
      "kecamatan": "KUNJANG",
      "desa": "balongjeruk  kunjang",
      "longitude": 112.18418,
      "latitude": -7.68711,
      "lampu_type": "LED",
      "jenis_jalan": "NON K1",
      "box_name": "TIDAK TERSAMBUNG",
      "box_key": null,
      "connected": false,
      "box_id": null,
      "color": null
    },
    {
      "name": "ASET DESA LEGAL",
      "nama_aset": "",
      "kecamatan": "KUNJANG",
      "desa": "balongjeruk  kunjang",
      "longitude": 112.18642,
      "latitude": -7.688,
      "lampu_type": "LED",
      "jenis_jalan": "K1",
      "box_name": "TIDAK TERSAMBUNG",
      "box_key": null,
      "connected": false,
      "box_id": null,
      "color": null
    },
    {
      "name": "ASET DESA LEGAL",
      "nama_aset": "",
      "kecamatan": "KUNJANG",
      "desa": "balongjeruk  kunjang",
      "longitude": 112.18668,
      "latitude": -7.6873,
      "lampu_type": "LED",
      "jenis_jalan": "K1",
      "box_name": "TIDAK TERSAMBUNG",
      "box_key": null,
      "connected": false,
      "box_id": null,
      "color": null
    },
    {
      "name": "ASET DESA LEGAL",
      "nama_aset": "",
      "kecamatan": "KUNJANG",
      "desa": "balongjeruk  kunjang",
      "longitude": 112.18695,
      "latitude": -7.68659,
      "lampu_type": "LED",
      "jenis_jalan": "K1",
      "box_name": "TIDAK TERSAMBUNG",
      "box_key": null,
      "connected": false,
      "box_id": null,
      "color": null
    },
    {
      "name": "ASET DESA LEGAL",
      "nama_aset": "",
      "kecamatan": "KUNJANG",
      "desa": "balongjeruk  kunjang",
      "longitude": 112.18742,
      "latitude": -7.68537,
      "lampu_type": "LED",
      "jenis_jalan": "K1",
      "box_name": "TIDAK TERSAMBUNG",
      "box_key": null,
      "connected": false,
      "box_id": null,
      "color": null
    },
    {
      "name": "ASET DESA LEGAL",
      "nama_aset": "",
      "kecamatan": "KUNJANG",
      "desa": "balongjeruk  kunjang",
      "longitude": 112.18764,
      "latitude": -7.68482,
      "lampu_type": "LED",
      "jenis_jalan": "K1",
      "box_name": "TIDAK TERSAMBUNG",
      "box_key": null,
      "connected": false,
      "box_id": null,
      "color": null
    },
    {
      "name": "ASET DESA LEGAL",
      "nama_aset": "",
      "kecamatan": "KUNJANG",
      "desa": "balongjeruk  kunjang",
      "longitude": 112.1879,
      "latitude": -7.68413,
      "lampu_type": "LED",
      "jenis_jalan": "K1",
      "box_name": "TIDAK TERSAMBUNG",
      "box_key": null,
      "connected": false,
      "box_id": null,
      "color": null
    },
    {
      "name": "ASET DESA LEGAL",
      "nama_aset": "",
      "kecamatan": "KUNJANG",
      "desa": "balongjeruk  kunjang",
      "longitude": 112.18814,
      "latitude": -7.68351,
      "lampu_type": "LED",
      "jenis_jalan": "K1",
      "box_name": "TIDAK TERSAMBUNG",
      "box_key": null,
      "connected": false,
      "box_id": null,
      "color": null
    },
    {
      "name": "ASET DESA LEGAL",
      "nama_aset": "",
      "kecamatan": "KUNJANG",
      "desa": "balongjeruk  kunjang",
      "longitude": 112.1883,
      "latitude": -7.68308,
      "lampu_type": "LED",
      "jenis_jalan": "K1",
      "box_name": "TIDAK TERSAMBUNG",
      "box_key": null,
      "connected": false,
      "box_id": null,
      "color": null
    },
    {
      "name": "ASET DESA LEGAL",
      "nama_aset": "",
      "kecamatan": "KUNJANG",
      "desa": "balongjeruk  kunjang",
      "longitude": 112.18851,
      "latitude": -7.68255,
      "lampu_type": "LED",
      "jenis_jalan": "K1",
      "box_name": "TIDAK TERSAMBUNG",
      "box_key": null,
      "connected": false,
      "box_id": null,
      "color": null
    },
    {
      "name": "ASET DESA LEGAL",
      "nama_aset": "",
      "kecamatan": "KUNJANG",
      "desa": "balongjeruk  kunjang",
      "longitude": 112.18879,
      "latitude": -7.68185,
      "lampu_type": "LED",
      "jenis_jalan": "K1",
      "box_name": "TIDAK TERSAMBUNG",
      "box_key": null,
      "connected": false,
      "box_id": null,
      "color": null
    },
    {
      "name": "Desa Balongjeruk Box 1 Aset Desa",
      "nama_aset": "",
      "kecamatan": "KUNJANG",
      "desa": "balongjeruk  kunjang",
      "longitude": 112.1891,
      "latitude": -7.68134,
      "lampu_type": "LED",
      "jenis_jalan": "K1",
      "box_name": "Box 1 Desa Balongjeruk",
      "box_key": "balongjeruk_box_1",
      "connected": true,
      "box_id": 7,
      "color": "hsl(105, 85%, 45%)",
      "color_hex": "#41d411"
    },
    {
      "name": "Desa Balongjeruk Box 1 Aset Desa",
      "nama_aset": "",
      "kecamatan": "KUNJANG",
      "desa": "balongjeruk  kunjang",
      "longitude": 112.18954,
      "latitude": -7.68073,
      "lampu_type": "LED",
      "jenis_jalan": "K1",
      "box_name": "Box 1 Desa Balongjeruk",
      "box_key": "balongjeruk_box_1",
      "connected": true,
      "box_id": 7,
      "color": "hsl(105, 85%, 45%)",
      "color_hex": "#41d411"
    },
    {
      "name": "Desa Balongjeruk Box 1 Aset Desa",
      "nama_aset": "",
      "kecamatan": "KUNJANG",
      "desa": "balongjeruk  kunjang",
      "longitude": 112.1897,
      "latitude": -7.68021,
      "lampu_type": "LED",
      "jenis_jalan": "K1",
      "box_name": "Box 1 Desa Balongjeruk",
      "box_key": "balongjeruk_box_1",
      "connected": true,
      "box_id": 7,
      "color": "hsl(105, 85%, 45%)",
      "color_hex": "#41d411"
    },
    {
      "name": "Desa Balongjeruk Box 1 Aset Desa",
      "nama_aset": "",
      "kecamatan": "KUNJANG",
      "desa": "balongjeruk  kunjang",
      "longitude": 112.18986,
      "latitude": -7.67969,
      "lampu_type": "LED",
      "jenis_jalan": "K1",
      "box_name": "Box 1 Desa Balongjeruk",
      "box_key": "balongjeruk_box_1",
      "connected": true,
      "box_id": 7,
      "color": "hsl(105, 85%, 45%)",
      "color_hex": "#41d411"
    },
    {
      "name": "Desa Balongjeruk Box 1 Aset Desa",
      "nama_aset": "",
      "kecamatan": "KUNJANG",
      "desa": "balongjeruk  kunjang",
      "longitude": 112.19,
      "latitude": -7.67988,
      "lampu_type": "LED",
      "jenis_jalan": "NON K1",
      "box_name": "Box 1 Desa Balongjeruk",
      "box_key": "balongjeruk_box_1",
      "connected": true,
      "box_id": 7,
      "color": "hsl(105, 85%, 45%)",
      "color_hex": "#41d411"
    },
    {
      "name": "Desa Balongjeruk Box 1 Aset Desa",
      "nama_aset": "",
      "kecamatan": "KUNJANG",
      "desa": "balongjeruk  kunjang",
      "longitude": 112.19002,
      "latitude": -7.67989,
      "lampu_type": "LED",
      "jenis_jalan": "NON K1",
      "box_name": "Box 1 Desa Balongjeruk",
      "box_key": "balongjeruk_box_1",
      "connected": true,
      "box_id": 7,
      "color": "hsl(105, 85%, 45%)",
      "color_hex": "#41d411"
    },
    {
      "name": "Desa Balongjeruk Box 1 Aset Desa",
      "nama_aset": "",
      "kecamatan": "KUNJANG",
      "desa": "balongjeruk  kunjang",
      "longitude": 112.18995,
      "latitude": -7.67889,
      "lampu_type": "LED",
      "jenis_jalan": "K1",
      "box_name": "Box 1 Desa Balongjeruk",
      "box_key": "balongjeruk_box_1",
      "connected": true,
      "box_id": 7,
      "color": "hsl(105, 85%, 45%)",
      "color_hex": "#41d411"
    },
    {
      "name": "Desa Balongjeruk Box 1 Aset Desa",
      "nama_aset": "",
      "kecamatan": "KUNJANG",
      "desa": "balongjeruk  kunjang",
      "longitude": 112.19024,
      "latitude": -7.67866,
      "lampu_type": "LED",
      "jenis_jalan": "NON K1",
      "box_name": "Box 1 Desa Balongjeruk",
      "box_key": "balongjeruk_box_1",
      "connected": true,
      "box_id": 7,
      "color": "hsl(105, 85%, 45%)",
      "color_hex": "#41d411"
    },
    {
      "name": "Desa Balongjeruk Box 1 Aset Desa",
      "nama_aset": "",
      "kecamatan": "KUNJANG",
      "desa": "balongjeruk  kunjang",
      "longitude": 112.19043,
      "latitude": -7.67876,
      "lampu_type": "LED",
      "jenis_jalan": "NON K1",
      "box_name": "Box 1 Desa Balongjeruk",
      "box_key": "balongjeruk_box_1",
      "connected": true,
      "box_id": 7,
      "color": "hsl(105, 85%, 45%)",
      "color_hex": "#41d411"
    },
    {
      "name": "Desa Balongjeruk Box 1 Aset Desa",
      "nama_aset": "",
      "kecamatan": "KUNJANG",
      "desa": "balongjeruk  kunjang",
      "longitude": 112.19072,
      "latitude": -7.6789,
      "lampu_type": "LED",
      "jenis_jalan": "NON K1",
      "box_name": "Box 1 Desa Balongjeruk",
      "box_key": "balongjeruk_box_1",
      "connected": true,
      "box_id": 7,
      "color": "hsl(105, 85%, 45%)",
      "color_hex": "#41d411"
    },
    {
      "name": "Desa Balongjeruk Box 1 Aset Desa",
      "nama_aset": "",
      "kecamatan": "KUNJANG",
      "desa": "balongjeruk  kunjang",
      "longitude": 112.19079,
      "latitude": -7.67893,
      "lampu_type": "LED",
      "jenis_jalan": "NON K1",
      "box_name": "Box 1 Desa Balongjeruk",
      "box_key": "balongjeruk_box_1",
      "connected": true,
      "box_id": 7,
      "color": "hsl(105, 85%, 45%)",
      "color_hex": "#41d411"
    },
    {
      "name": "Desa Balongjeruk Box 1 Aset Desa",
      "nama_aset": "",
      "kecamatan": "KUNJANG",
      "desa": "balongjeruk  kunjang",
      "longitude": 112.19117,
      "latitude": -7.67909,
      "lampu_type": "LED",
      "jenis_jalan": "NON K1",
      "box_name": "Box 1 Desa Balongjeruk",
      "box_key": "balongjeruk_box_1",
      "connected": true,
      "box_id": 7,
      "color": "hsl(105, 85%, 45%)",
      "color_hex": "#41d411"
    },
    {
      "name": "Desa Balongjeruk Box 1 Aset Desa",
      "nama_aset": "",
      "kecamatan": "KUNJANG",
      "desa": "balongjeruk  kunjang",
      "longitude": 112.19139,
      "latitude": -7.67918,
      "lampu_type": "LED",
      "jenis_jalan": "NON K1",
      "box_name": "Box 1 Desa Balongjeruk",
      "box_key": "balongjeruk_box_1",
      "connected": true,
      "box_id": 7,
      "color": "hsl(105, 85%, 45%)",
      "color_hex": "#41d411"
    },
    {
      "name": "Desa Balongjeruk Box 1 Aset Desa",
      "nama_aset": "",
      "kecamatan": "KUNJANG",
      "desa": "balongjeruk  kunjang",
      "longitude": 112.19146,
      "latitude": -7.67922,
      "lampu_type": "LED",
      "jenis_jalan": "NON K1",
      "box_name": "Box 1 Desa Balongjeruk",
      "box_key": "balongjeruk_box_1",
      "connected": true,
      "box_id": 7,
      "color": "hsl(105, 85%, 45%)",
      "color_hex": "#41d411"
    },
    {
      "name": "Desa Balongjeruk Box 1 Aset Desa",
      "nama_aset": "",
      "kecamatan": "KUNJANG",
      "desa": "balongjeruk  kunjang",
      "longitude": 112.1916,
      "latitude": -7.67928,
      "lampu_type": "LED",
      "jenis_jalan": "NON K1",
      "box_name": "Box 1 Desa Balongjeruk",
      "box_key": "balongjeruk_box_1",
      "connected": true,
      "box_id": 7,
      "color": "hsl(105, 85%, 45%)",
      "color_hex": "#41d411"
    },
    {
      "name": "Desa Balongjeruk Box 1 Aset Desa",
      "nama_aset": "",
      "kecamatan": "KUNJANG",
      "desa": "balongjeruk  kunjang",
      "longitude": 112.19192,
      "latitude": -7.67942,
      "lampu_type": "LED",
      "jenis_jalan": "NON K1",
      "box_name": "Box 1 Desa Balongjeruk",
      "box_key": "balongjeruk_box_1",
      "connected": true,
      "box_id": 7,
      "color": "hsl(105, 85%, 45%)",
      "color_hex": "#41d411"
    },
    {
      "name": "Desa Balongjeruk Box 1 Aset Desa",
      "nama_aset": "",
      "kecamatan": "KUNJANG",
      "desa": "balongjeruk  kunjang",
      "longitude": 112.19198,
      "latitude": -7.67964,
      "lampu_type": "LED",
      "jenis_jalan": "NON K1",
      "box_name": "Box 1 Desa Balongjeruk",
      "box_key": "balongjeruk_box_1",
      "connected": true,
      "box_id": 7,
      "color": "hsl(105, 85%, 45%)",
      "color_hex": "#41d411"
    },
    {
      "name": "Desa Balongjeruk Box 1 Aset Desa",
      "nama_aset": "",
      "kecamatan": "KUNJANG",
      "desa": "balongjeruk  kunjang",
      "longitude": 112.19193,
      "latitude": -7.67974,
      "lampu_type": "LED",
      "jenis_jalan": "NON K1",
      "box_name": "Box 1 Desa Balongjeruk",
      "box_key": "balongjeruk_box_1",
      "connected": true,
      "box_id": 7,
      "color": "hsl(105, 85%, 45%)",
      "color_hex": "#41d411"
    },
    {
      "name": "Desa Balongjeruk Box 1 Aset Desa",
      "nama_aset": "",
      "kecamatan": "KUNJANG",
      "desa": "balongjeruk  kunjang",
      "longitude": 112.19187,
      "latitude": -7.67991,
      "lampu_type": "LED",
      "jenis_jalan": "NON K1",
      "box_name": "Box 1 Desa Balongjeruk",
      "box_key": "balongjeruk_box_1",
      "connected": true,
      "box_id": 7,
      "color": "hsl(105, 85%, 45%)",
      "color_hex": "#41d411"
    },
    {
      "name": "Desa Balongjeruk Box 1 Aset Desa",
      "nama_aset": "",
      "kecamatan": "KUNJANG",
      "desa": "balongjeruk  kunjang",
      "longitude": 112.19226,
      "latitude": -7.68002,
      "lampu_type": "LED",
      "jenis_jalan": "NON K1",
      "box_name": "Box 1 Desa Balongjeruk",
      "box_key": "balongjeruk_box_1",
      "connected": true,
      "box_id": 7,
      "color": "hsl(105, 85%, 45%)",
      "color_hex": "#41d411"
    },
    {
      "name": "Desa Balongjeruk Box 1 Aset Desa",
      "nama_aset": "",
      "kecamatan": "KUNJANG",
      "desa": "balongjeruk  kunjang",
      "longitude": 112.19165,
      "latitude": -7.67985,
      "lampu_type": "LED",
      "jenis_jalan": "NON K1",
      "box_name": "Box 1 Desa Balongjeruk",
      "box_key": "balongjeruk_box_1",
      "connected": true,
      "box_id": 7,
      "color": "hsl(105, 85%, 45%)",
      "color_hex": "#41d411"
    },
    {
      "name": "Desa Balongjeruk Box 1 Aset Desa",
      "nama_aset": "",
      "kecamatan": "KUNJANG",
      "desa": "balongjeruk  kunjang",
      "longitude": 112.19146,
      "latitude": -7.67979,
      "lampu_type": "LED",
      "jenis_jalan": "NON K1",
      "box_name": "Box 1 Desa Balongjeruk",
      "box_key": "balongjeruk_box_1",
      "connected": true,
      "box_id": 7,
      "color": "hsl(105, 85%, 45%)",
      "color_hex": "#41d411"
    },
    {
      "name": "Desa Balongjeruk Box 1 Aset Desa",
      "nama_aset": "",
      "kecamatan": "KUNJANG",
      "desa": "balongjeruk  kunjang",
      "longitude": 112.19139,
      "latitude": -7.67976,
      "lampu_type": "LED",
      "jenis_jalan": "NON K1",
      "box_name": "Box 1 Desa Balongjeruk",
      "box_key": "balongjeruk_box_1",
      "connected": true,
      "box_id": 7,
      "color": "hsl(105, 85%, 45%)",
      "color_hex": "#41d411"
    },
    {
      "name": "Desa Balongjeruk Box 1 Aset Desa",
      "nama_aset": "",
      "kecamatan": "KUNJANG",
      "desa": "balongjeruk  kunjang",
      "longitude": 112.19125,
      "latitude": -7.67972,
      "lampu_type": "LED",
      "jenis_jalan": "NON K1",
      "box_name": "Box 1 Desa Balongjeruk",
      "box_key": "balongjeruk_box_1",
      "connected": true,
      "box_id": 7,
      "color": "hsl(105, 85%, 45%)",
      "color_hex": "#41d411"
    },
    {
      "name": "Desa Balongjeruk Box 1 Aset Desa",
      "nama_aset": "",
      "kecamatan": "KUNJANG",
      "desa": "balongjeruk  kunjang",
      "longitude": 112.19111,
      "latitude": -7.67967,
      "lampu_type": "LED",
      "jenis_jalan": "NON K1",
      "box_name": "Box 1 Desa Balongjeruk",
      "box_key": "balongjeruk_box_1",
      "connected": true,
      "box_id": 7,
      "color": "hsl(105, 85%, 45%)",
      "color_hex": "#41d411"
    },
    {
      "name": "Desa Balongjeruk Box 1 Aset Desa",
      "nama_aset": "",
      "kecamatan": "KUNJANG",
      "desa": "balongjeruk  kunjang",
      "longitude": 112.19095,
      "latitude": -7.67962,
      "lampu_type": "LED",
      "jenis_jalan": "NON K1",
      "box_name": "Box 1 Desa Balongjeruk",
      "box_key": "balongjeruk_box_1",
      "connected": true,
      "box_id": 7,
      "color": "hsl(105, 85%, 45%)",
      "color_hex": "#41d411"
    },
    {
      "name": "Desa Balongjeruk Box 1 Aset Desa",
      "nama_aset": "",
      "kecamatan": "KUNJANG",
      "desa": "balongjeruk  kunjang",
      "longitude": 112.19071,
      "latitude": -7.67954,
      "lampu_type": "LED",
      "jenis_jalan": "",
      "box_name": "Box 1 Desa Balongjeruk",
      "box_key": "balongjeruk_box_1",
      "connected": true,
      "box_id": 7,
      "color": "hsl(105, 85%, 45%)",
      "color_hex": "#41d411"
    },
    {
      "name": "Desa Balongjeruk Box 1 Aset Desa",
      "nama_aset": "",
      "kecamatan": "KUNJANG",
      "desa": "balongjeruk  kunjang",
      "longitude": 112.19002,
      "latitude": -7.67858,
      "lampu_type": "LED",
      "jenis_jalan": "K1",
      "box_name": "Box 1 Desa Balongjeruk",
      "box_key": "balongjeruk_box_1",
      "connected": true,
      "box_id": 7,
      "color": "hsl(105, 85%, 45%)",
      "color_hex": "#41d411"
    },
    {
      "name": "Desa Balongjeruk Box 1 Aset Desa",
      "nama_aset": "",
      "kecamatan": "KUNJANG",
      "desa": "balongjeruk  kunjang",
      "longitude": 112.19013,
      "latitude": -7.6783,
      "lampu_type": "LED",
      "jenis_jalan": "K1",
      "box_name": "Box 1 Desa Balongjeruk",
      "box_key": "balongjeruk_box_1",
      "connected": true,
      "box_id": 7,
      "color": "hsl(105, 85%, 45%)",
      "color_hex": "#41d411"
    },
    {
      "name": "Desa Balongjeruk Box 1 Aset Desa",
      "nama_aset": "",
      "kecamatan": "KUNJANG",
      "desa": "balongjeruk  kunjang",
      "longitude": 112.19023,
      "latitude": -7.67802,
      "lampu_type": "LED",
      "jenis_jalan": "K1",
      "box_name": "Box 1 Desa Balongjeruk",
      "box_key": "balongjeruk_box_1",
      "connected": true,
      "box_id": 7,
      "color": "hsl(105, 85%, 45%)",
      "color_hex": "#41d411"
    },
    {
      "name": "Desa Balongjeruk Box 1 Aset Desa",
      "nama_aset": "",
      "kecamatan": "KUNJANG",
      "desa": "balongjeruk  kunjang",
      "longitude": 112.19029,
      "latitude": -7.67784,
      "lampu_type": "LED",
      "jenis_jalan": "NON K1",
      "box_name": "Box 1 Desa Balongjeruk",
      "box_key": "balongjeruk_box_1",
      "connected": true,
      "box_id": 7,
      "color": "hsl(105, 85%, 45%)",
      "color_hex": "#41d411"
    },
    {
      "name": "Desa Balongjeruk Box 1 Aset Desa",
      "nama_aset": "",
      "kecamatan": "KUNJANG",
      "desa": "balongjeruk  kunjang",
      "longitude": 112.19028,
      "latitude": -7.67782,
      "lampu_type": "LED",
      "jenis_jalan": "NON K1",
      "box_name": "Box 1 Desa Balongjeruk",
      "box_key": "balongjeruk_box_1",
      "connected": true,
      "box_id": 7,
      "color": "hsl(105, 85%, 45%)",
      "color_hex": "#41d411"
    },
    {
      "name": "Desa Balongjeruk Box 1 Aset Desa",
      "nama_aset": "",
      "kecamatan": "KUNJANG",
      "desa": "balongjeruk  kunjang",
      "longitude": 112.19005,
      "latitude": -7.67774,
      "lampu_type": "LED",
      "jenis_jalan": "NON K1",
      "box_name": "Box 1 Desa Balongjeruk",
      "box_key": "balongjeruk_box_1",
      "connected": true,
      "box_id": 7,
      "color": "hsl(105, 85%, 45%)",
      "color_hex": "#41d411"
    },
    {
      "name": "Desa Balongjeruk Box 1 Aset Desa",
      "nama_aset": "",
      "kecamatan": "KUNJANG",
      "desa": "balongjeruk  kunjang",
      "longitude": 112.18979,
      "latitude": -7.67764,
      "lampu_type": "LED",
      "jenis_jalan": "NON K1",
      "box_name": "Box 1 Desa Balongjeruk",
      "box_key": "balongjeruk_box_1",
      "connected": true,
      "box_id": 7,
      "color": "hsl(105, 85%, 45%)",
      "color_hex": "#41d411"
    },
    {
      "name": "Desa Balongjeruk Box 1 Aset Desa",
      "nama_aset": "",
      "kecamatan": "KUNJANG",
      "desa": "balongjeruk  kunjang",
      "longitude": 112.18973,
      "latitude": -7.67762,
      "lampu_type": "LED",
      "jenis_jalan": "NON K1",
      "box_name": "Box 1 Desa Balongjeruk",
      "box_key": "balongjeruk_box_1",
      "connected": true,
      "box_id": 7,
      "color": "hsl(105, 85%, 45%)",
      "color_hex": "#41d411"
    },
    {
      "name": "Desa Balongjeruk Box 1 Aset Desa",
      "nama_aset": "",
      "kecamatan": "KUNJANG",
      "desa": "balongjeruk  kunjang",
      "longitude": 112.18961,
      "latitude": -7.67757,
      "lampu_type": "LED",
      "jenis_jalan": "NON K1",
      "box_name": "Box 1 Desa Balongjeruk",
      "box_key": "balongjeruk_box_1",
      "connected": true,
      "box_id": 7,
      "color": "hsl(105, 85%, 45%)",
      "color_hex": "#41d411"
    },
    {
      "name": "Desa Balongjeruk Box 1 Aset Desa",
      "nama_aset": "",
      "kecamatan": "KUNJANG",
      "desa": "balongjeruk  kunjang",
      "longitude": 112.18923,
      "latitude": -7.67744,
      "lampu_type": "LED",
      "jenis_jalan": "NON K1",
      "box_name": "Box 1 Desa Balongjeruk",
      "box_key": "balongjeruk_box_1",
      "connected": true,
      "box_id": 7,
      "color": "hsl(105, 85%, 45%)",
      "color_hex": "#41d411"
    },
    {
      "name": "Desa Balongjeruk Box 1 Aset Desa",
      "nama_aset": "",
      "kecamatan": "KUNJANG",
      "desa": "balongjeruk  kunjang",
      "longitude": 112.18889,
      "latitude": -7.67733,
      "lampu_type": "LED",
      "jenis_jalan": "NON K1",
      "box_name": "Box 1 Desa Balongjeruk",
      "box_key": "balongjeruk_box_1",
      "connected": true,
      "box_id": 7,
      "color": "hsl(105, 85%, 45%)",
      "color_hex": "#41d411"
    },
    {
      "name": "Desa Balongjeruk Box 1 Aset Desa",
      "nama_aset": "",
      "kecamatan": "KUNJANG",
      "desa": "balongjeruk  kunjang",
      "longitude": 112.18882,
      "latitude": -7.67731,
      "lampu_type": "LED",
      "jenis_jalan": "NON K1",
      "box_name": "Box 1 Desa Balongjeruk",
      "box_key": "balongjeruk_box_1",
      "connected": true,
      "box_id": 7,
      "color": "hsl(105, 85%, 45%)",
      "color_hex": "#41d411"
    },
    {
      "name": "Desa Balongjeruk Box 1 Aset Desa",
      "nama_aset": "",
      "kecamatan": "KUNJANG",
      "desa": "balongjeruk  kunjang",
      "longitude": 112.18861,
      "latitude": -7.67724,
      "lampu_type": "LED",
      "jenis_jalan": "NON K1",
      "box_name": "Box 1 Desa Balongjeruk",
      "box_key": "balongjeruk_box_1",
      "connected": true,
      "box_id": 7,
      "color": "hsl(105, 85%, 45%)",
      "color_hex": "#41d411"
    },
    {
      "name": "Desa Balongjeruk Box 1 Aset Desa",
      "nama_aset": "",
      "kecamatan": "KUNJANG",
      "desa": "balongjeruk  kunjang",
      "longitude": 112.18826,
      "latitude": -7.67716,
      "lampu_type": "LED",
      "jenis_jalan": "NON K1",
      "box_name": "Box 1 Desa Balongjeruk",
      "box_key": "balongjeruk_box_1",
      "connected": true,
      "box_id": 7,
      "color": "hsl(105, 85%, 45%)",
      "color_hex": "#41d411"
    },
    {
      "name": "Desa Balongjeruk Box 1 Aset Desa",
      "nama_aset": "",
      "kecamatan": "KUNJANG",
      "desa": "balongjeruk  kunjang",
      "longitude": 112.18805,
      "latitude": -7.67713,
      "lampu_type": "LED",
      "jenis_jalan": "NON K1",
      "box_name": "Box 1 Desa Balongjeruk",
      "box_key": "balongjeruk_box_1",
      "connected": true,
      "box_id": 7,
      "color": "hsl(105, 85%, 45%)",
      "color_hex": "#41d411"
    },
    {
      "name": "Desa Balongjeruk Box 1 Aset Desa",
      "nama_aset": "",
      "kecamatan": "KUNJANG",
      "desa": "balongjeruk  kunjang",
      "longitude": 112.18774,
      "latitude": -7.67706,
      "lampu_type": "LED",
      "jenis_jalan": "NON K1",
      "box_name": "Box 1 Desa Balongjeruk",
      "box_key": "balongjeruk_box_1",
      "connected": true,
      "box_id": 7,
      "color": "hsl(105, 85%, 45%)",
      "color_hex": "#41d411"
    },
    {
      "name": "Desa Balongjeruk Box 1 Aset Desa",
      "nama_aset": "",
      "kecamatan": "KUNJANG",
      "desa": "balongjeruk  kunjang",
      "longitude": 112.18756,
      "latitude": -7.6775,
      "lampu_type": "LED",
      "jenis_jalan": "NON K1",
      "box_name": "Box 1 Desa Balongjeruk",
      "box_key": "balongjeruk_box_1",
      "connected": true,
      "box_id": 7,
      "color": "hsl(105, 85%, 45%)",
      "color_hex": "#41d411"
    },
    {
      "name": "Desa Balongjeruk Box 1 Aset Desa",
      "nama_aset": "",
      "kecamatan": "KUNJANG",
      "desa": "balongjeruk  kunjang",
      "longitude": 112.18753,
      "latitude": -7.67764,
      "lampu_type": "LED",
      "jenis_jalan": "NON K1",
      "box_name": "Box 1 Desa Balongjeruk",
      "box_key": "balongjeruk_box_1",
      "connected": true,
      "box_id": 7,
      "color": "hsl(105, 85%, 45%)",
      "color_hex": "#41d411"
    },
    {
      "name": "Desa Balongjeruk Box 1 Aset Desa",
      "nama_aset": "",
      "kecamatan": "KUNJANG",
      "desa": "balongjeruk  kunjang",
      "longitude": 112.18755,
      "latitude": -7.67776,
      "lampu_type": "LED",
      "jenis_jalan": "NON K1",
      "box_name": "Box 1 Desa Balongjeruk",
      "box_key": "balongjeruk_box_1",
      "connected": true,
      "box_id": 7,
      "color": "hsl(105, 85%, 45%)",
      "color_hex": "#41d411"
    },
    {
      "name": "Desa Balongjeruk Box 1 Aset Desa",
      "nama_aset": "",
      "kecamatan": "KUNJANG",
      "desa": "balongjeruk  kunjang",
      "longitude": 112.18773,
      "latitude": -7.67779,
      "lampu_type": "LED",
      "jenis_jalan": "NON K1",
      "box_name": "Box 1 Desa Balongjeruk",
      "box_key": "balongjeruk_box_1",
      "connected": true,
      "box_id": 7,
      "color": "hsl(105, 85%, 45%)",
      "color_hex": "#41d411"
    },
    {
      "name": "Desa Balongjeruk Box 1 Aset Desa",
      "nama_aset": "",
      "kecamatan": "KUNJANG",
      "desa": "balongjeruk  kunjang",
      "longitude": 112.18786,
      "latitude": -7.67793,
      "lampu_type": "LED",
      "jenis_jalan": "NON K1",
      "box_name": "Box 1 Desa Balongjeruk",
      "box_key": "balongjeruk_box_1",
      "connected": true,
      "box_id": 7,
      "color": "hsl(105, 85%, 45%)",
      "color_hex": "#41d411"
    },
    {
      "name": "Desa Balongjeruk Box 1 Aset Desa",
      "nama_aset": "",
      "kecamatan": "KUNJANG",
      "desa": "balongjeruk  kunjang",
      "longitude": 112.18781,
      "latitude": -7.67819,
      "lampu_type": "LED",
      "jenis_jalan": "NON K1",
      "box_name": "Box 1 Desa Balongjeruk",
      "box_key": "balongjeruk_box_1",
      "connected": true,
      "box_id": 7,
      "color": "hsl(105, 85%, 45%)",
      "color_hex": "#41d411"
    },
    {
      "name": "Desa Balongjeruk Box 1 Aset Desa",
      "nama_aset": "",
      "kecamatan": "KUNJANG",
      "desa": "balongjeruk  kunjang",
      "longitude": 112.18778,
      "latitude": -7.67839,
      "lampu_type": "LED",
      "jenis_jalan": "NON K1",
      "box_name": "Box 1 Desa Balongjeruk",
      "box_key": "balongjeruk_box_1",
      "connected": true,
      "box_id": 7,
      "color": "hsl(105, 85%, 45%)",
      "color_hex": "#41d411"
    },
    {
      "name": "Desa Balongjeruk Box 1 Aset Desa",
      "nama_aset": "",
      "kecamatan": "KUNJANG",
      "desa": "balongjeruk  kunjang",
      "longitude": 112.18775,
      "latitude": -7.67856,
      "lampu_type": "LED",
      "jenis_jalan": "NON K1",
      "box_name": "Box 1 Desa Balongjeruk",
      "box_key": "balongjeruk_box_1",
      "connected": true,
      "box_id": 7,
      "color": "hsl(105, 85%, 45%)",
      "color_hex": "#41d411"
    },
    {
      "name": "Desa Balongjeruk Box 1 Aset Desa",
      "nama_aset": "",
      "kecamatan": "KUNJANG",
      "desa": "balongjeruk  kunjang",
      "longitude": 112.18808,
      "latitude": -7.67875,
      "lampu_type": "LED",
      "jenis_jalan": "NON K1",
      "box_name": "Box 1 Desa Balongjeruk",
      "box_key": "balongjeruk_box_1",
      "connected": true,
      "box_id": 7,
      "color": "hsl(105, 85%, 45%)",
      "color_hex": "#41d411"
    },
    {
      "name": "Desa Balongjeruk Box 1 Aset Desa",
      "nama_aset": "",
      "kecamatan": "KUNJANG",
      "desa": "balongjeruk  kunjang",
      "longitude": 112.18817,
      "latitude": -7.67878,
      "lampu_type": "LED",
      "jenis_jalan": "NON K1",
      "box_name": "Box 1 Desa Balongjeruk",
      "box_key": "balongjeruk_box_1",
      "connected": true,
      "box_id": 7,
      "color": "hsl(105, 85%, 45%)",
      "color_hex": "#41d411"
    },
    {
      "name": "Desa Balongjeruk Box 1 Aset Desa",
      "nama_aset": "",
      "kecamatan": "KUNJANG",
      "desa": "balongjeruk  kunjang",
      "longitude": 112.18768,
      "latitude": -7.67883,
      "lampu_type": "LED",
      "jenis_jalan": "NON K1",
      "box_name": "Box 1 Desa Balongjeruk",
      "box_key": "balongjeruk_box_1",
      "connected": true,
      "box_id": 7,
      "color": "hsl(105, 85%, 45%)",
      "color_hex": "#41d411"
    },
    {
      "name": "Desa Balongjeruk Box 1 Aset Desa",
      "nama_aset": "",
      "kecamatan": "KUNJANG",
      "desa": "balongjeruk  kunjang",
      "longitude": 112.18791,
      "latitude": -7.67757,
      "lampu_type": "LED",
      "jenis_jalan": "NON K1",
      "box_name": "Box 1 Desa Balongjeruk",
      "box_key": "balongjeruk_box_1",
      "connected": true,
      "box_id": 7,
      "color": "hsl(105, 85%, 45%)",
      "color_hex": "#41d411"
    },
    {
      "name": "Desa Balongjeruk Box 1 Aset Desa",
      "nama_aset": "",
      "kecamatan": "KUNJANG",
      "desa": "balongjeruk  kunjang",
      "longitude": 112.18796,
      "latitude": -7.67727,
      "lampu_type": "LED",
      "jenis_jalan": "NON K1",
      "box_name": "Box 1 Desa Balongjeruk",
      "box_key": "balongjeruk_box_1",
      "connected": true,
      "box_id": 7,
      "color": "hsl(105, 85%, 45%)",
      "color_hex": "#41d411"
    },
    {
      "name": "Desa Balongjeruk Box 1 Aset Desa",
      "nama_aset": "",
      "kecamatan": "KUNJANG",
      "desa": "balongjeruk  kunjang",
      "longitude": 112.19037,
      "latitude": -7.67768,
      "lampu_type": "LED",
      "jenis_jalan": "K1",
      "box_name": "Box 1 Desa Balongjeruk",
      "box_key": "balongjeruk_box_1",
      "connected": true,
      "box_id": 7,
      "color": "hsl(105, 85%, 45%)",
      "color_hex": "#41d411"
    },
    {
      "name": "Desa Balongjeruk Box 1 Aset Desa",
      "nama_aset": "",
      "kecamatan": "KUNJANG",
      "desa": "balongjeruk  kunjang",
      "longitude": 112.19051,
      "latitude": -7.67733,
      "lampu_type": "LED",
      "jenis_jalan": "K1",
      "box_name": "Box 1 Desa Balongjeruk",
      "box_key": "balongjeruk_box_1",
      "connected": true,
      "box_id": 7,
      "color": "hsl(105, 85%, 45%)",
      "color_hex": "#41d411"
    },
    {
      "name": "Desa Balongjeruk Box 1 Aset Desa",
      "nama_aset": "",
      "kecamatan": "KUNJANG",
      "desa": "balongjeruk  kunjang",
      "longitude": 112.19069,
      "latitude": -7.67685,
      "lampu_type": "LED",
      "jenis_jalan": "K1",
      "box_name": "Box 1 Desa Balongjeruk",
      "box_key": "balongjeruk_box_1",
      "connected": true,
      "box_id": 7,
      "color": "hsl(105, 85%, 45%)",
      "color_hex": "#41d411"
    },
    {
      "name": "Desa Balongjeruk Box 1 Aset Desa",
      "nama_aset": "",
      "kecamatan": "KUNJANG",
      "desa": "balongjeruk  kunjang",
      "longitude": 112.19082,
      "latitude": -7.67649,
      "lampu_type": "LED",
      "jenis_jalan": "K1",
      "box_name": "Box 1 Desa Balongjeruk",
      "box_key": "balongjeruk_box_1",
      "connected": true,
      "box_id": 7,
      "color": "hsl(105, 85%, 45%)",
      "color_hex": "#41d411"
    },
    {
      "name": "Desa Balongjeruk Box 1 Aset Desa",
      "nama_aset": "",
      "kecamatan": "KUNJANG",
      "desa": "balongjeruk  kunjang",
      "longitude": 112.19096,
      "latitude": -7.67612,
      "lampu_type": "LED",
      "jenis_jalan": "K1",
      "box_name": "Box 1 Desa Balongjeruk",
      "box_key": "balongjeruk_box_1",
      "connected": true,
      "box_id": 7,
      "color": "hsl(105, 85%, 45%)",
      "color_hex": "#41d411"
    },
    {
      "name": "Desa Balongjeruk Box 1 Aset Desa",
      "nama_aset": "",
      "kecamatan": "KUNJANG",
      "desa": "balongjeruk  kunjang",
      "longitude": 112.19109,
      "latitude": -7.67576,
      "lampu_type": "LED",
      "jenis_jalan": "K1",
      "box_name": "Box 1 Desa Balongjeruk",
      "box_key": "balongjeruk_box_1",
      "connected": true,
      "box_id": 7,
      "color": "hsl(105, 85%, 45%)",
      "color_hex": "#41d411"
    },
    {
      "name": "Desa Balongjeruk Box 1 Aset Desa",
      "nama_aset": "",
      "kecamatan": "KUNJANG",
      "desa": "balongjeruk  kunjang",
      "longitude": 112.19126,
      "latitude": -7.67533,
      "lampu_type": "LED",
      "jenis_jalan": "K1",
      "box_name": "Box 1 Desa Balongjeruk",
      "box_key": "balongjeruk_box_1",
      "connected": true,
      "box_id": 7,
      "color": "hsl(105, 85%, 45%)",
      "color_hex": "#41d411"
    },
    {
      "name": "Desa Balongjeruk Box 1 Aset Desa",
      "nama_aset": "",
      "kecamatan": "KUNJANG",
      "desa": "balongjeruk  kunjang",
      "longitude": 112.19143,
      "latitude": -7.67489,
      "lampu_type": "LED",
      "jenis_jalan": "K1",
      "box_name": "Box 1 Desa Balongjeruk",
      "box_key": "balongjeruk_box_1",
      "connected": true,
      "box_id": 7,
      "color": "hsl(105, 85%, 45%)",
      "color_hex": "#41d411"
    },
    {
      "name": "Desa Balongjeruk Box 1 Aset Desa",
      "nama_aset": "",
      "kecamatan": "KUNJANG",
      "desa": "balongjeruk  kunjang",
      "longitude": 112.19149,
      "latitude": -7.67473,
      "lampu_type": "LED",
      "jenis_jalan": "K1",
      "box_name": "Box 1 Desa Balongjeruk",
      "box_key": "balongjeruk_box_1",
      "connected": true,
      "box_id": 7,
      "color": "hsl(105, 85%, 45%)",
      "color_hex": "#41d411"
    },
    {
      "name": "Desa Balongjeruk Box 1 Aset Desa",
      "nama_aset": "",
      "kecamatan": "KUNJANG",
      "desa": "balongjeruk  kunjang",
      "longitude": 112.19154,
      "latitude": -7.67458,
      "lampu_type": "LED",
      "jenis_jalan": "K1",
      "box_name": "Box 1 Desa Balongjeruk",
      "box_key": "balongjeruk_box_1",
      "connected": true,
      "box_id": 7,
      "color": "hsl(105, 85%, 45%)",
      "color_hex": "#41d411"
    },
    {
      "name": "Desa Balongjeruk Box 1 Aset Perkim",
      "nama_aset": "",
      "kecamatan": "KUNJANG",
      "desa": "balongjeruk  kunjang",
      "longitude": 112.19173,
      "latitude": -7.67428,
      "lampu_type": "MERCURY",
      "jenis_jalan": "K1",
      "box_name": "Box 1 Desa Balongjeruk",
      "box_key": "balongjeruk_box_1",
      "connected": true,
      "box_id": 7,
      "color": "hsl(105, 85%, 45%)",
      "color_hex": "#41d411"
    },
    {
      "name": "Desa Balongjeruk Box 1 Aset Perkim",
      "nama_aset": "",
      "kecamatan": "KUNJANG",
      "desa": "balongjeruk  kunjang",
      "longitude": 112.19183,
      "latitude": -7.67432,
      "lampu_type": "LED",
      "jenis_jalan": "K1",
      "box_name": "Box 1 Desa Balongjeruk",
      "box_key": "balongjeruk_box_1",
      "connected": true,
      "box_id": 7,
      "color": "hsl(105, 85%, 45%)",
      "color_hex": "#41d411"
    },
    {
      "name": "Desa Balongjeruk Box 1 Aset Perkim",
      "nama_aset": "",
      "kecamatan": "KUNJANG",
      "desa": "balongjeruk  kunjang",
      "longitude": 112.1922,
      "latitude": -7.67476,
      "lampu_type": "LED",
      "jenis_jalan": "K1",
      "box_name": "Box 1 Desa Balongjeruk",
      "box_key": "balongjeruk_box_1",
      "connected": true,
      "box_id": 7,
      "color": "hsl(105, 85%, 45%)",
      "color_hex": "#41d411"
    },
    {
      "name": "Desa Balongjeruk Box 1 Aset Desa",
      "nama_aset": "",
      "kecamatan": "KUNJANG",
      "desa": "balongjeruk  kunjang",
      "longitude": 112.19244,
      "latitude": -7.67506,
      "lampu_type": "LED",
      "jenis_jalan": "K1",
      "box_name": "Box 1 Desa Balongjeruk",
      "box_key": "balongjeruk_box_1",
      "connected": true,
      "box_id": 7,
      "color": "hsl(105, 85%, 45%)",
      "color_hex": "#41d411"
    },
    {
      "name": "Desa Balongjeruk Box 1 Aset Perkim",
      "nama_aset": "",
      "kecamatan": "KUNJANG",
      "desa": "balongjeruk  kunjang",
      "longitude": 112.1925,
      "latitude": -7.67512,
      "lampu_type": "LED",
      "jenis_jalan": "K1",
      "box_name": "Box 1 Desa Balongjeruk",
      "box_key": "balongjeruk_box_1",
      "connected": true,
      "box_id": 7,
      "color": "hsl(105, 85%, 45%)",
      "color_hex": "#41d411"
    },
    {
      "name": "Desa Balongjeruk Box 1 Aset Desa",
      "nama_aset": "",
      "kecamatan": "KUNJANG",
      "desa": "balongjeruk  kunjang",
      "longitude": 112.1926,
      "latitude": -7.67525,
      "lampu_type": "LED",
      "jenis_jalan": "K1",
      "box_name": "Box 1 Desa Balongjeruk",
      "box_key": "balongjeruk_box_1",
      "connected": true,
      "box_id": 7,
      "color": "hsl(105, 85%, 45%)",
      "color_hex": "#41d411"
    },
    {
      "name": "Desa Balongjeruk Box 1 Aset Perkim",
      "nama_aset": "",
      "kecamatan": "KUNJANG",
      "desa": "balongjeruk  kunjang",
      "longitude": 112.1928,
      "latitude": -7.67549,
      "lampu_type": "LED",
      "jenis_jalan": "K1",
      "box_name": "Box 1 Desa Balongjeruk",
      "box_key": "balongjeruk_box_1",
      "connected": true,
      "box_id": 7,
      "color": "hsl(105, 85%, 45%)",
      "color_hex": "#41d411"
    },
    {
      "name": "Desa Balongjeruk Box 1 Aset Perkim",
      "nama_aset": "",
      "kecamatan": "KUNJANG",
      "desa": "balongjeruk  kunjang",
      "longitude": 112.1931,
      "latitude": -7.67586,
      "lampu_type": "LED",
      "jenis_jalan": "K1",
      "box_name": "Box 1 Desa Balongjeruk",
      "box_key": "balongjeruk_box_1",
      "connected": true,
      "box_id": 7,
      "color": "hsl(105, 85%, 45%)",
      "color_hex": "#41d411"
    },
    {
      "name": "Desa Balongjeruk Box 1 Aset Perkim",
      "nama_aset": "",
      "kecamatan": "KUNJANG",
      "desa": "balongjeruk  kunjang",
      "longitude": 112.19356,
      "latitude": -7.6764,
      "lampu_type": "LED",
      "jenis_jalan": "K1",
      "box_name": "Box 1 Desa Balongjeruk",
      "box_key": "balongjeruk_box_1",
      "connected": true,
      "box_id": 7,
      "color": "hsl(105, 85%, 45%)",
      "color_hex": "#41d411"
    },
    {
      "name": "Desa Balongjeruk Box 1 Aset Perkim",
      "nama_aset": "",
      "kecamatan": "KUNJANG",
      "desa": "balongjeruk  kunjang",
      "longitude": 112.19397,
      "latitude": -7.67692,
      "lampu_type": "LED",
      "jenis_jalan": "K1",
      "box_name": "Box 1 Desa Balongjeruk",
      "box_key": "balongjeruk_box_1",
      "connected": true,
      "box_id": 7,
      "color": "hsl(105, 85%, 45%)",
      "color_hex": "#41d411"
    },
    {
      "name": "Desa Balongjeruk Box 1 Aset Desa",
      "nama_aset": "",
      "kecamatan": "KUNJANG",
      "desa": "balongjeruk  kunjang",
      "longitude": 112.19408,
      "latitude": -7.67706,
      "lampu_type": "LED",
      "jenis_jalan": "K1",
      "box_name": "Box 1 Desa Balongjeruk",
      "box_key": "balongjeruk_box_1",
      "connected": true,
      "box_id": 7,
      "color": "hsl(105, 85%, 45%)",
      "color_hex": "#41d411"
    },
    {
      "name": "Desa Balongjeruk Box 1 Aset Perkim",
      "nama_aset": "",
      "kecamatan": "KUNJANG",
      "desa": "balongjeruk  kunjang",
      "longitude": 112.19431,
      "latitude": -7.67733,
      "lampu_type": "LED",
      "jenis_jalan": "K1",
      "box_name": "Box 1 Desa Balongjeruk",
      "box_key": "balongjeruk_box_1",
      "connected": true,
      "box_id": 7,
      "color": "hsl(105, 85%, 45%)",
      "color_hex": "#41d411"
    },
    {
      "name": "Desa Balongjeruk Box 1 Aset Perkim",
      "nama_aset": "",
      "kecamatan": "KUNJANG",
      "desa": "balongjeruk  kunjang",
      "longitude": 112.19463,
      "latitude": -7.67771,
      "lampu_type": "LED",
      "jenis_jalan": "K1",
      "box_name": "Box 1 Desa Balongjeruk",
      "box_key": "balongjeruk_box_1",
      "connected": true,
      "box_id": 7,
      "color": "hsl(105, 85%, 45%)",
      "color_hex": "#41d411"
    },
    {
      "name": "Desa Balongjeruk Box 1 Aset Perkim",
      "nama_aset": "",
      "kecamatan": "KUNJANG",
      "desa": "balongjeruk  kunjang",
      "longitude": 112.1949,
      "latitude": -7.67806,
      "lampu_type": "LED",
      "jenis_jalan": "K1",
      "box_name": "Box 1 Desa Balongjeruk",
      "box_key": "balongjeruk_box_1",
      "connected": true,
      "box_id": 7,
      "color": "hsl(105, 85%, 45%)",
      "color_hex": "#41d411"
    },
    {
      "name": "Desa Balongjeruk Box 1 Aset Desa",
      "nama_aset": "",
      "kecamatan": "KUNJANG",
      "desa": "balongjeruk  kunjang",
      "longitude": 112.19443,
      "latitude": -7.67668,
      "lampu_type": "LED",
      "jenis_jalan": "NON K1",
      "box_name": "Box 1 Desa Balongjeruk",
      "box_key": "balongjeruk_box_1",
      "connected": true,
      "box_id": 7,
      "color": "hsl(105, 85%, 45%)",
      "color_hex": "#41d411"
    },
    {
      "name": "Desa Balongjeruk Box 1 Aset Desa",
      "nama_aset": "",
      "kecamatan": "KUNJANG",
      "desa": "balongjeruk  kunjang",
      "longitude": 112.1944,
      "latitude": -7.67669,
      "lampu_type": "LED",
      "jenis_jalan": "NON K1",
      "box_name": "Box 1 Desa Balongjeruk",
      "box_key": "balongjeruk_box_1",
      "connected": true,
      "box_id": 7,
      "color": "hsl(105, 85%, 45%)",
      "color_hex": "#41d411"
    },
    {
      "name": "Desa Balongjeruk Box 1 Aset Desa",
      "nama_aset": "",
      "kecamatan": "KUNJANG",
      "desa": "balongjeruk  kunjang",
      "longitude": 112.19417,
      "latitude": -7.67692,
      "lampu_type": "LED",
      "jenis_jalan": "NON K1",
      "box_name": "Box 1 Desa Balongjeruk",
      "box_key": "balongjeruk_box_1",
      "connected": true,
      "box_id": 7,
      "color": "hsl(105, 85%, 45%)",
      "color_hex": "#41d411"
    },
    {
      "name": "Desa Balongjeruk Box 1 Aset Desa",
      "nama_aset": "",
      "kecamatan": "KUNJANG",
      "desa": "balongjeruk  kunjang",
      "longitude": 112.19462,
      "latitude": -7.67646,
      "lampu_type": "LED",
      "jenis_jalan": "NON K1",
      "box_name": "Box 1 Desa Balongjeruk",
      "box_key": "balongjeruk_box_1",
      "connected": true,
      "box_id": 7,
      "color": "hsl(105, 85%, 45%)",
      "color_hex": "#41d411"
    },
    {
      "name": "Desa Balongjeruk Box 1 Aset Desa",
      "nama_aset": "",
      "kecamatan": "KUNJANG",
      "desa": "balongjeruk  kunjang",
      "longitude": 112.19472,
      "latitude": -7.67634,
      "lampu_type": "LED",
      "jenis_jalan": "NON K1",
      "box_name": "Box 1 Desa Balongjeruk",
      "box_key": "balongjeruk_box_1",
      "connected": true,
      "box_id": 7,
      "color": "hsl(105, 85%, 45%)",
      "color_hex": "#41d411"
    },
    {
      "name": "Desa Balongjeruk Box 1 Aset Desa",
      "nama_aset": "",
      "kecamatan": "KUNJANG",
      "desa": "balongjeruk  kunjang",
      "longitude": 112.1951,
      "latitude": -7.67566,
      "lampu_type": "LED",
      "jenis_jalan": "NON K1",
      "box_name": "Box 1 Desa Balongjeruk",
      "box_key": "balongjeruk_box_1",
      "connected": true,
      "box_id": 7,
      "color": "hsl(105, 85%, 45%)",
      "color_hex": "#41d411"
    },
    {
      "name": "Desa Balongjeruk Box 1 Aset Desa",
      "nama_aset": "",
      "kecamatan": "KUNJANG",
      "desa": "balongjeruk  kunjang",
      "longitude": 112.19521,
      "latitude": -7.67547,
      "lampu_type": "LED",
      "jenis_jalan": "NON K1",
      "box_name": "Box 1 Desa Balongjeruk",
      "box_key": "balongjeruk_box_1",
      "connected": true,
      "box_id": 7,
      "color": "hsl(105, 85%, 45%)",
      "color_hex": "#41d411"
    },
    {
      "name": "Desa Balongjeruk Box 1 Aset Desa",
      "nama_aset": "",
      "kecamatan": "KUNJANG",
      "desa": "balongjeruk  kunjang",
      "longitude": 112.19527,
      "latitude": -7.67536,
      "lampu_type": "LED",
      "jenis_jalan": "NON K1",
      "box_name": "Box 1 Desa Balongjeruk",
      "box_key": "balongjeruk_box_1",
      "connected": true,
      "box_id": 7,
      "color": "hsl(105, 85%, 45%)",
      "color_hex": "#41d411"
    },
    {
      "name": "Desa Balongjeruk Box 1 Aset Desa",
      "nama_aset": "",
      "kecamatan": "KUNJANG",
      "desa": "balongjeruk  kunjang",
      "longitude": 112.19505,
      "latitude": -7.67526,
      "lampu_type": "LED",
      "jenis_jalan": "NON K1",
      "box_name": "Box 1 Desa Balongjeruk",
      "box_key": "balongjeruk_box_1",
      "connected": true,
      "box_id": 7,
      "color": "hsl(105, 85%, 45%)",
      "color_hex": "#41d411"
    },
    {
      "name": "Desa Balongjeruk Box 1 Aset Desa",
      "nama_aset": "",
      "kecamatan": "KUNJANG",
      "desa": "balongjeruk  kunjang",
      "longitude": 112.19486,
      "latitude": -7.67518,
      "lampu_type": "LED",
      "jenis_jalan": "NON K1",
      "box_name": "Box 1 Desa Balongjeruk",
      "box_key": "balongjeruk_box_1",
      "connected": true,
      "box_id": 7,
      "color": "hsl(105, 85%, 45%)",
      "color_hex": "#41d411"
    },
    {
      "name": "Desa Balongjeruk Box 1 Aset Desa",
      "nama_aset": "",
      "kecamatan": "KUNJANG",
      "desa": "balongjeruk  kunjang",
      "longitude": 112.19451,
      "latitude": -7.67504,
      "lampu_type": "LED",
      "jenis_jalan": "NON K1",
      "box_name": "Box 1 Desa Balongjeruk",
      "box_key": "balongjeruk_box_1",
      "connected": true,
      "box_id": 7,
      "color": "hsl(105, 85%, 45%)",
      "color_hex": "#41d411"
    },
    {
      "name": "Desa Balongjeruk Box 1 Aset Desa",
      "nama_aset": "",
      "kecamatan": "KUNJANG",
      "desa": "balongjeruk  kunjang",
      "longitude": 112.19443,
      "latitude": -7.675,
      "lampu_type": "LED",
      "jenis_jalan": "NON K1",
      "box_name": "Box 1 Desa Balongjeruk",
      "box_key": "balongjeruk_box_1",
      "connected": true,
      "box_id": 7,
      "color": "hsl(105, 85%, 45%)",
      "color_hex": "#41d411"
    },
    {
      "name": "Desa Balongjeruk Box 1 Aset Desa",
      "nama_aset": "",
      "kecamatan": "KUNJANG",
      "desa": "balongjeruk  kunjang",
      "longitude": 112.19435,
      "latitude": -7.67496,
      "lampu_type": "LED",
      "jenis_jalan": "NON K1",
      "box_name": "Box 1 Desa Balongjeruk",
      "box_key": "balongjeruk_box_1",
      "connected": true,
      "box_id": 7,
      "color": "hsl(105, 85%, 45%)",
      "color_hex": "#41d411"
    },
    {
      "name": "Desa Balongjeruk Box 1 Aset Desa",
      "nama_aset": "",
      "kecamatan": "KUNJANG",
      "desa": "balongjeruk  kunjang",
      "longitude": 112.19431,
      "latitude": -7.67494,
      "lampu_type": "LED",
      "jenis_jalan": "NON K1",
      "box_name": "Box 1 Desa Balongjeruk",
      "box_key": "balongjeruk_box_1",
      "connected": true,
      "box_id": 7,
      "color": "hsl(105, 85%, 45%)",
      "color_hex": "#41d411"
    },
    {
      "name": "Desa Balongjeruk Box 1 Aset Desa",
      "nama_aset": "",
      "kecamatan": "KUNJANG",
      "desa": "balongjeruk  kunjang",
      "longitude": 112.19417,
      "latitude": -7.67487,
      "lampu_type": "LED",
      "jenis_jalan": "NON K1",
      "box_name": "Box 1 Desa Balongjeruk",
      "box_key": "balongjeruk_box_1",
      "connected": true,
      "box_id": 7,
      "color": "hsl(105, 85%, 45%)",
      "color_hex": "#41d411"
    },
    {
      "name": "Desa Balongjeruk Box 1 Aset Desa",
      "nama_aset": "",
      "kecamatan": "KUNJANG",
      "desa": "balongjeruk  kunjang",
      "longitude": 112.19406,
      "latitude": -7.67481,
      "lampu_type": "LED",
      "jenis_jalan": "NON K1",
      "box_name": "Box 1 Desa Balongjeruk",
      "box_key": "balongjeruk_box_1",
      "connected": true,
      "box_id": 7,
      "color": "hsl(105, 85%, 45%)",
      "color_hex": "#41d411"
    },
    {
      "name": "Desa Balongjeruk Box 1 Aset Desa",
      "nama_aset": "",
      "kecamatan": "KUNJANG",
      "desa": "balongjeruk  kunjang",
      "longitude": 112.1938,
      "latitude": -7.6747,
      "lampu_type": "LED",
      "jenis_jalan": "NON K1",
      "box_name": "Box 1 Desa Balongjeruk",
      "box_key": "balongjeruk_box_1",
      "connected": true,
      "box_id": 7,
      "color": "hsl(105, 85%, 45%)",
      "color_hex": "#41d411"
    },
    {
      "name": "Desa Balongjeruk Box 1 Aset Desa",
      "nama_aset": "",
      "kecamatan": "KUNJANG",
      "desa": "balongjeruk  kunjang",
      "longitude": 112.19375,
      "latitude": -7.67468,
      "lampu_type": "LED",
      "jenis_jalan": "NON K1",
      "box_name": "Box 1 Desa Balongjeruk",
      "box_key": "balongjeruk_box_1",
      "connected": true,
      "box_id": 7,
      "color": "hsl(105, 85%, 45%)",
      "color_hex": "#41d411"
    },
    {
      "name": "Desa Balongjeruk Box 1 Aset Desa",
      "nama_aset": "",
      "kecamatan": "KUNJANG",
      "desa": "balongjeruk  kunjang",
      "longitude": 112.19342,
      "latitude": -7.67452,
      "lampu_type": "LED",
      "jenis_jalan": "NON K1",
      "box_name": "Box 1 Desa Balongjeruk",
      "box_key": "balongjeruk_box_1",
      "connected": true,
      "box_id": 7,
      "color": "hsl(105, 85%, 45%)",
      "color_hex": "#41d411"
    },
    {
      "name": "Desa Balongjeruk Box 1 Aset Desa",
      "nama_aset": "",
      "kecamatan": "KUNJANG",
      "desa": "balongjeruk  kunjang",
      "longitude": 112.19329,
      "latitude": -7.67446,
      "lampu_type": "LED",
      "jenis_jalan": "NON K1",
      "box_name": "Box 1 Desa Balongjeruk",
      "box_key": "balongjeruk_box_1",
      "connected": true,
      "box_id": 7,
      "color": "hsl(105, 85%, 45%)",
      "color_hex": "#41d411"
    },
    {
      "name": "Desa Balongjeruk Box 1 Aset Desa",
      "nama_aset": "",
      "kecamatan": "KUNJANG",
      "desa": "balongjeruk  kunjang",
      "longitude": 112.19312,
      "latitude": -7.67439,
      "lampu_type": "LED",
      "jenis_jalan": "NON K1",
      "box_name": "Box 1 Desa Balongjeruk",
      "box_key": "balongjeruk_box_1",
      "connected": true,
      "box_id": 7,
      "color": "hsl(105, 85%, 45%)",
      "color_hex": "#41d411"
    },
    {
      "name": "Desa Balongjeruk Box 1 Aset Desa",
      "nama_aset": "",
      "kecamatan": "KUNJANG",
      "desa": "balongjeruk  kunjang",
      "longitude": 112.19296,
      "latitude": -7.6743,
      "lampu_type": "LED",
      "jenis_jalan": "NON K1",
      "box_name": "Box 1 Desa Balongjeruk",
      "box_key": "balongjeruk_box_1",
      "connected": true,
      "box_id": 7,
      "color": "hsl(105, 85%, 45%)",
      "color_hex": "#41d411"
    },
    {
      "name": "Desa Balongjeruk Box 1 Aset Desa",
      "nama_aset": "",
      "kecamatan": "KUNJANG",
      "desa": "balongjeruk  kunjang",
      "longitude": 112.19278,
      "latitude": -7.67422,
      "lampu_type": "LED",
      "jenis_jalan": "NON K1",
      "box_name": "Box 1 Desa Balongjeruk",
      "box_key": "balongjeruk_box_1",
      "connected": true,
      "box_id": 7,
      "color": "hsl(105, 85%, 45%)",
      "color_hex": "#41d411"
    },
    {
      "name": "Desa Balongjeruk Box 1 Aset Desa",
      "nama_aset": "",
      "kecamatan": "KUNJANG",
      "desa": "balongjeruk  kunjang",
      "longitude": 112.19264,
      "latitude": -7.67425,
      "lampu_type": "LED",
      "jenis_jalan": "NON K1",
      "box_name": "Box 1 Desa Balongjeruk",
      "box_key": "balongjeruk_box_1",
      "connected": true,
      "box_id": 7,
      "color": "hsl(105, 85%, 45%)",
      "color_hex": "#41d411"
    },